p_height,p_x_speed,p_y_speed,p_z_speed,p_pitch,p_roll,p_yaw,p_temperature,p_flight_time,p_battery,p_mp_distance_x,p_mp_distance_y,p_mp_distance_z,frame.len,wlan.duration,wlan.ra,wlan.ta,wlan.da,wlan.sa,wlan.bssid,wlan.frag,wlan.seq,wlan.fc.type,wlan.fc.subtype,data.len,class
100,0,0,0,0,-1,0,66.0,35,67,-1,-22,106,24,0,1,1,1,1,0,0,22,2,4,0,Replay
100,0,0,0,0,0,0,66.0,36,67,-2,-20,111,104,0,6,1,6,1,0,0,54,0,8,0,Replay
100,0,0,0,0,0,0,66.0,36,67,-2,-20,111,98,320,2,1,2,1,0,0,104,0,5,0,Replay
100,0,0,0,0,0,0,66.0,36,67,-2,-20,111,98,320,2,1,2,1,0,0,104,0,5,0,Replay
100,0,0,0,0,0,0,66.0,36,67,-2,-20,111,98,320,2,1,2,1,0,0,104,0,5,0,Replay
100,0,0,0,0,0,0,66.0,36,67,-2,-20,111,98,320,2,1,2,1,0,0,105,0,5,0,Replay
100,0,0,0,0,0,0,66.0,36,67,-2,-20,111,98,320,2,1,2,1,0,0,106,0,5,0,Replay
100,0,0,0,0,0,0,66.0,36,67,-2,-20,111,98,320,3,1,3,1,0,0,111,0,5,0,Replay
100,0,0,0,0,0,0,66.0,36,67,-2,-20,111,98,320,3,1,3,1,0,0,111,0,5,0,Replay
100,0,0,0,0,0,0,66.0,36,67,-2,-20,111,98,320,3,1,3,1,0,0,111,0,5,0,Replay
100,0,0,0,0,0,0,66.0,36,67,-2,-20,111,98,320,3,1,3,1,0,0,112,0,5,0,Replay
100,0,0,0,0,0,0,66.0,36,67,-2,-20,111,98,320,3,1,3,1,0,0,112,0,5,0,Replay
100,0,0,0,0,0,0,66.0,36,67,-2,-20,111,98,320,3,1,3,1,0,0,112,0,5,0,Replay
100,0,0,1,0,-1,0,67.0,36,67,-3,-21,106,98,320,3,1,3,1,0,0,113,0,5,0,Replay
100,0,0,1,0,-1,0,67.0,36,67,-3,-21,106,98,320,3,1,3,1,0,0,115,0,5,0,Replay
100,0,0,1,0,-1,0,67.0,36,67,-3,-21,106,98,320,3,1,3,1,0,0,116,0,5,0,Replay
100,0,0,1,0,-1,0,67.0,36,67,-3,-21,106,26,162,1,2,1,2,0,0,0,2,12,0,Replay
100,0,0,1,0,-1,0,67.0,36,67,-3,-21,106,26,162,1,2,1,2,0,0,0,2,12,0,Replay
100,0,0,1,0,-1,0,67.0,36,67,-3,-21,106,26,162,1,2,1,2,0,0,0,2,12,0,Replay
100,0,0,1,0,-1,0,67.0,36,67,-3,-21,106,26,162,1,2,1,2,0,0,0,2,12,0,Replay
100,0,0,1,0,-1,0,67.0,36,67,-3,-21,106,26,162,1,2,1,2,0,0,0,2,12,0,Replay
100,0,0,1,0,-1,0,67.0,36,67,-3,-21,106,26,162,1,2,1,2,0,0,0,2,12,0,Replay
100,0,0,1,0,-1,0,67.0,36,67,-3,-21,106,26,162,1,2,1,2,0,0,0,2,12,0,Replay
100,0,0,1,0,-1,0,67.0,36,67,-3,-21,106,26,162,1,2,1,2,0,0,0,2,12,0,Replay
100,0,0,1,0,-1,0,67.0,36,67,-3,-21,106,26,162,1,2,1,2,0,0,0,2,12,0,Replay
90,0,0,1,0,0,0,67.0,37,67,-2,-25,96,26,162,1,2,1,2,0,0,0,2,12,0,Replay
90,0,0,1,0,0,0,67.0,37,67,-2,-25,96,26,162,1,2,1,2,0,0,0,2,12,0,Replay
90,0,0,1,0,0,0,67.0,37,67,-2,-25,96,26,162,1,2,1,2,0,0,0,2,12,0,Replay
90,0,0,1,0,0,0,67.0,37,67,-2,-25,96,62,44,0,1,0,1,0,0,0,2,8,0,Replay
90,0,0,1,0,0,0,67.0,37,67,-2,-25,96,62,44,0,1,0,1,0,0,0,2,8,0,Replay
90,0,0,1,0,0,0,67.0,37,67,-2,-25,96,26,60,1,0,1,0,0,0,0,2,12,0,Replay
90,0,0,1,0,0,0,67.0,37,67,-2,-25,96,26,162,1,2,1,2,0,0,0,2,12,0,Replay
90,0,0,1,0,0,0,67.0,37,67,-2,-25,96,26,162,1,2,1,2,0,0,0,2,12,0,Replay
90,0,0,1,0,0,0,67.0,37,67,-2,-25,96,26,60,1,0,1,0,0,0,0,2,12,0,Replay
90,0,0,1,0,0,0,67.0,37,67,-2,-25,96,26,162,1,2,1,2,0,0,0,2,12,0,Replay
90,0,0,1,0,0,0,67.0,37,67,-2,-25,96,26,162,1,2,1,2,0,0,0,2,12,0,Replay
90,0,0,1,0,0,0,67.0,37,67,-2,-25,96,26,162,1,2,1,2,0,0,0,2,12,0,Replay
80,0,0,1,0,-1,0,66.0,37,67,-5,-25,90,26,162,1,2,1,2,0,0,0,2,12,0,Replay
80,0,0,1,0,-1,0,66.0,37,67,-5,-25,90,98,320,5,1,5,1,0,0,188,0,5,0,Replay
80,0,0,1,0,-1,0,66.0,37,67,-5,-25,90,98,320,5,1,5,1,0,0,189,0,5,0,Replay
80,0,0,1,0,-1,0,66.0,37,67,-5,-25,90,26,162,1,2,1,2,0,0,0,2,12,0,Replay
80,0,0,1,0,-1,0,66.0,37,67,-5,-25,90,234,44,0,1,0,1,0,0,5,2,8,172,Replay
80,0,0,1,0,-1,0,66.0,37,67,-5,-25,90,75,44,0,1,0,1,0,0,6,2,8,13,Replay
80,0,0,1,0,-1,0,66.0,37,67,-5,-25,90,26,60,1,0,1,0,0,0,0,2,12,0,Replay
80,0,0,1,0,-1,0,66.0,37,67,-5,-25,90,26,162,1,2,1,2,0,0,0,2,12,0,Replay
80,0,0,1,0,-1,0,66.0,37,67,-5,-25,90,86,44,1,0,1,0,0,0,61,2,8,0,Replay
80,0,0,1,0,-1,0,66.0,37,67,-5,-25,90,235,44,0,1,0,1,0,0,7,2,8,173,Replay
80,0,0,1,0,-1,0,66.0,37,67,-5,-25,90,65,44,1,0,1,0,0,0,62,2,8,3,Replay
80,0,0,1,0,-1,0,66.0,37,67,-5,-25,90,26,60,1,0,1,0,0,0,0,2,12,0,Replay
80,0,0,0,0,-1,0,66.0,38,67,-4,-26,84,26,162,1,2,1,2,0,0,0,2,12,0,Replay
80,0,0,0,0,-1,0,66.0,38,67,-4,-26,84,64,44,0,1,0,1,0,0,8,2,8,2,Replay
80,0,0,0,0,-1,0,66.0,38,67,-4,-26,84,26,162,1,2,1,2,0,0,0,2,12,0,Replay
80,0,0,0,0,-1,0,66.0,38,67,-4,-26,84,98,320,4,1,4,1,0,0,209,0,5,0,Replay
80,0,0,0,0,-1,0,66.0,38,67,-4,-26,84,98,320,4,1,4,1,0,0,210,0,5,0,Replay
80,0,0,0,0,-1,0,66.0,38,67,-4,-26,84,26,162,1,2,1,2,0,0,0,2,12,0,Replay
80,0,0,0,0,-1,0,66.0,38,67,-4,-26,84,98,320,4,1,4,1,0,0,212,0,5,0,Replay
80,0,0,0,0,-1,0,66.0,38,67,-4,-26,84,98,320,4,1,4,1,0,0,212,0,5,0,Replay
80,0,0,0,0,-1,0,66.0,38,67,-4,-26,84,26,162,1,2,1,2,0,0,0,2,12,0,Replay
80,0,0,0,0,-1,0,66.0,38,67,-4,-26,84,26,162,1,2,1,2,0,0,0,2,12,0,Replay
80,0,0,0,0,-1,0,66.0,38,67,-4,-26,84,229,320,0,1,0,1,0,0,37,2,8,167,Replay
80,0,0,0,0,-1,0,66.0,38,67,-4,-26,84,229,320,0,1,0,1,0,0,37,2,8,167,Replay
80,0,-1,0,-1,-3,0,67.0,38,67,-4,-27,79,229,320,0,1,0,1,0,0,37,2,8,167,Replay
80,0,-1,0,-1,-3,0,67.0,38,67,-4,-27,79,26,162,1,2,1,2,0,0,0,2,12,0,Replay
80,0,-1,0,-1,-3,0,67.0,38,67,-4,-27,79,26,162,1,2,1,2,0,0,0,2,12,0,Replay
80,0,-1,0,-1,-3,0,67.0,38,67,-4,-27,79,26,60,1,0,1,0,0,0,0,2,12,0,Replay
80,0,-1,0,-1,-3,0,67.0,38,67,-4,-27,79,26,162,1,2,1,2,0,0,0,2,12,0,Replay
80,0,-1,0,-1,-3,0,67.0,38,67,-4,-27,79,230,44,0,1,0,1,0,0,51,2,8,168,Replay
80,0,-1,0,-1,-3,0,67.0,38,67,-4,-27,79,229,44,0,1,0,1,0,0,52,2,8,167,Replay
80,0,-1,0,-1,-3,0,67.0,38,67,-4,-27,79,26,60,1,0,1,0,0,0,0,2,12,0,Replay
80,0,-1,0,-1,-3,0,67.0,38,67,-4,-27,79,26,162,1,2,1,2,0,0,0,2,12,0,Replay
80,0,-1,0,-1,-3,0,67.0,38,67,-4,-27,79,229,44,0,1,0,1,0,0,52,2,8,167,Replay
80,0,-1,0,-1,-3,0,67.0,38,67,-4,-27,79,86,44,1,0,1,0,0,0,89,2,8,0,Replay
80,0,-1,0,-1,-3,0,67.0,38,67,-4,-27,79,26,162,1,2,1,2,0,0,0,2,12,0,Replay
70,0,-1,0,0,0,0,67.0,39,67,-3,-15,80,26,162,1,2,1,2,0,0,0,2,12,0,Replay
70,0,-1,0,0,0,0,67.0,39,67,-3,-15,80,26,162,1,2,1,2,0,0,0,2,12,0,Replay
70,0,-1,0,0,0,0,67.0,39,67,-3,-15,80,26,162,1,2,1,2,0,0,0,2,12,0,Replay
70,0,-1,0,0,0,0,67.0,39,67,-3,-15,80,26,162,1,2,1,2,0,0,0,2,12,0,Replay
70,0,-1,0,0,0,0,67.0,39,67,-3,-15,80,26,162,1,2,1,2,0,0,0,2,12,0,Replay
70,0,-1,0,0,0,0,67.0,39,67,-3,-15,80,26,162,1,2,1,2,0,0,0,2,12,0,Replay
70,0,-1,0,0,0,0,67.0,39,67,-3,-15,80,26,162,1,2,1,2,0,0,0,2,12,0,Replay
70,0,-1,0,0,0,0,67.0,39,67,-3,-15,80,26,162,1,2,1,2,0,0,0,2,12,0,Replay
70,0,-1,0,0,0,0,67.0,39,67,-3,-15,80,26,60,1,0,1,0,0,0,0,2,12,0,Replay
70,0,-1,0,0,0,0,67.0,39,67,-3,-15,80,26,162,1,2,1,2,0,0,0,2,12,0,Replay
70,0,-1,0,0,0,0,67.0,39,67,-3,-15,80,229,44,0,1,0,1,0,0,95,2,8,167,Replay
70,0,-1,0,0,0,0,67.0,39,67,-3,-15,80,26,60,1,0,1,0,0,0,0,2,12,0,Replay
70,0,-1,0,0,-1,0,67.0,39,67,-4,-13,80,26,162,1,2,1,2,0,0,0,2,12,0,Replay
70,0,-1,0,0,-1,0,67.0,39,67,-4,-13,80,86,44,1,0,1,0,0,0,107,2,8,0,Replay
70,0,-1,0,0,-1,0,67.0,39,67,-4,-13,80,228,44,0,1,0,1,0,0,96,2,8,166,Replay
70,0,-1,0,0,-1,0,67.0,39,67,-4,-13,80,26,162,1,2,1,2,0,0,0,2,12,0,Replay
70,0,-1,0,0,-1,0,67.0,39,67,-4,-13,80,26,60,1,0,1,0,0,0,0,2,12,0,Replay
70,0,-1,0,0,-1,0,67.0,39,67,-4,-13,80,26,162,1,2,1,2,0,0,0,2,12,0,Replay
70,0,-1,0,0,-1,0,67.0,39,67,-4,-13,80,26,162,1,2,1,2,0,0,0,2,12,0,Replay
70,0,-1,0,0,-1,0,67.0,39,67,-4,-13,80,26,162,1,2,1,2,0,0,0,2,12,0,Replay
70,0,-1,0,0,-1,0,67.0,39,67,-4,-13,80,26,162,1,2,1,2,0,0,0,2,12,0,Replay
70,0,-1,0,0,-1,0,67.0,39,67,-4,-13,80,26,162,1,2,1,2,0,0,0,2,12,0,Replay
70,0,-1,0,0,-1,0,67.0,39,67,-4,-13,80,26,162,1,2,1,2,0,0,0,2,12,0,Replay
70,0,-1,0,0,-1,0,67.0,39,67,-4,-13,80,26,162,1,2,1,2,0,0,0,2,12,0,Replay
70,0,-1,0,0,-1,0,67.0,40,67,-2,-9,81,26,162,1,2,1,2,0,0,0,2,12,0,Replay
70,0,-1,0,0,-1,0,67.0,40,67,-2,-9,81,26,162,1,2,1,2,0,0,0,2,12,0,Replay
70,0,-1,0,0,-1,0,67.0,40,67,-2,-9,81,26,162,1,2,1,2,0,0,0,2,12,0,Replay
70,0,-1,0,0,-1,0,67.0,40,67,-2,-9,81,75,44,0,1,0,1,0,0,137,2,8,13,Replay
70,0,-1,0,0,-1,0,67.0,40,67,-2,-9,81,230,44,0,1,0,1,0,0,138,2,8,168,Replay
70,0,-1,0,0,-1,0,67.0,40,67,-2,-9,81,26,60,1,0,1,0,0,0,0,2,12,0,Replay
70,0,-1,0,0,-1,0,67.0,40,67,-2,-9,81,26,162,1,2,1,2,0,0,0,2,12,0,Replay
70,0,-1,0,0,-1,0,67.0,40,67,-2,-9,81,230,44,0,1,0,1,0,0,139,2,8,168,Replay
70,0,-1,0,0,-1,0,67.0,40,67,-2,-9,81,26,60,1,0,1,0,0,0,0,2,12,0,Replay
70,0,-1,0,0,-1,0,67.0,40,67,-2,-9,81,26,162,1,2,1,2,0,0,0,2,12,0,Replay
70,0,-1,0,0,-1,0,67.0,40,67,-2,-9,81,230,320,0,1,0,1,0,0,142,2,8,168,Replay
70,0,-1,0,0,-1,0,67.0,40,67,-2,-9,81,230,320,0,1,0,1,0,0,142,2,8,168,Replay
70,0,-1,0,0,0,0,67.0,40,67,-3,-5,82,26,162,1,2,1,2,0,0,0,2,12,0,Replay
70,0,-1,0,0,0,0,67.0,40,67,-3,-5,82,26,162,1,2,1,2,0,0,0,2,12,0,Replay
70,0,-1,0,0,0,0,67.0,40,67,-3,-5,82,26,162,1,2,1,2,0,0,0,2,12,0,Replay
70,0,-1,0,0,0,0,67.0,40,67,-3,-5,82,26,162,1,2,1,2,0,0,0,2,12,0,Replay
70,0,-1,0,0,0,0,67.0,40,67,-3,-5,82,26,162,1,2,1,2,0,0,0,2,12,0,Replay
70,0,-1,0,0,0,0,67.0,40,67,-3,-5,82,26,162,1,2,1,2,0,0,0,2,12,0,Replay
70,0,-1,0,0,0,0,67.0,40,67,-3,-5,82,26,162,1,2,1,2,0,0,0,2,12,0,Replay
70,0,-1,0,0,0,0,67.0,40,67,-3,-5,82,26,162,1,2,1,2,0,0,0,2,12,0,Replay
70,0,-1,0,0,0,0,67.0,40,67,-3,-5,82,26,162,1,2,1,2,0,0,0,2,12,0,Replay
70,0,-1,0,0,0,0,67.0,40,67,-3,-5,82,26,60,1,0,1,0,0,0,0,2,12,0,Replay
70,0,-1,0,0,0,0,67.0,40,67,-3,-5,82,236,44,0,1,0,1,0,0,181,2,8,174,Replay
70,0,-1,0,0,0,0,67.0,40,67,-3,-5,82,26,162,1,2,1,2,0,0,0,2,12,0,Replay
70,0,0,0,0,0,0,67.0,41,67,-3,-5,81,26,60,1,0,1,0,0,0,0,2,12,0,Replay
70,0,0,0,0,0,0,67.0,41,67,-3,-5,81,26,162,1,2,1,2,0,0,0,2,12,0,Replay
70,0,0,0,0,0,0,67.0,41,67,-3,-5,81,233,44,0,1,0,1,0,0,182,2,8,171,Replay
70,0,0,0,0,0,0,67.0,41,67,-3,-5,81,26,162,1,2,1,2,0,0,0,2,12,0,Replay
70,0,0,0,0,0,0,67.0,41,67,-3,-5,81,26,162,1,2,1,2,0,0,0,2,12,0,Replay
70,0,0,0,0,0,0,67.0,41,67,-3,-5,81,26,162,1,2,1,2,0,0,0,2,12,0,Replay
70,0,0,0,0,0,0,67.0,41,67,-3,-5,81,26,162,1,2,1,2,0,0,0,2,12,0,Replay
70,0,0,0,0,0,0,67.0,41,67,-3,-5,81,26,162,1,2,1,2,0,0,0,2,12,0,Replay
70,0,0,0,0,0,0,67.0,41,67,-3,-5,81,26,162,1,2,1,2,0,0,0,2,12,0,Replay
70,0,0,0,0,0,0,67.0,41,67,-3,-5,81,26,162,1,2,1,2,0,0,0,2,12,0,Replay
70,0,0,0,0,0,0,67.0,41,67,-3,-5,81,232,320,0,1,0,1,0,0,217,2,8,170,Replay
70,0,0,0,0,0,0,67.0,41,67,-3,-5,81,26,162,1,2,1,2,0,0,0,2,12,0,Replay
70,4,0,0,-1,0,0,67.0,41,67,3,-8,81,26,162,1,2,1,2,0,0,0,2,12,0,Replay
70,4,0,0,-1,0,0,67.0,41,67,3,-8,81,229,44,0,1,0,1,0,0,224,2,8,167,Replay
70,4,0,0,-1,0,0,67.0,41,67,3,-8,81,86,44,1,0,1,0,0,0,150,2,8,0,Replay
70,4,0,0,-1,0,0,67.0,41,67,3,-8,81,26,60,1,0,1,0,0,0,0,2,12,0,Replay
70,4,0,0,-1,0,0,67.0,41,67,3,-8,81,26,162,1,2,1,2,0,0,0,2,12,0,Replay
70,4,0,0,-1,0,0,67.0,41,67,3,-8,81,231,44,0,1,0,1,0,0,225,2,8,169,Replay
70,4,0,0,-1,0,0,67.0,41,67,3,-8,81,231,44,0,1,0,1,0,0,225,2,8,169,Replay
70,4,0,0,-1,0,0,67.0,41,67,3,-8,81,26,162,1,2,1,2,0,0,0,2,12,0,Replay
70,4,0,0,-1,0,0,67.0,41,67,3,-8,81,26,60,1,0,1,0,0,0,0,2,12,0,Replay
70,4,0,0,-1,0,0,67.0,41,67,3,-8,81,26,162,1,2,1,2,0,0,0,2,12,0,Replay
70,4,0,0,-1,0,0,67.0,41,67,3,-8,81,231,44,0,1,0,1,0,0,226,2,8,169,Replay
70,4,0,0,-1,0,0,67.0,41,67,3,-8,81,26,162,1,2,1,2,0,0,0,2,12,0,Replay
70,2,0,0,-1,-1,0,67.0,42,67,24,-19,79,26,162,1,2,1,2,0,0,0,2,12,0,Replay
70,2,0,0,-1,-1,0,67.0,42,67,24,-19,79,26,162,1,2,1,2,0,0,0,2,12,0,Replay
70,2,0,0,-1,-1,0,67.0,42,67,24,-19,79,26,162,1,2,1,2,0,0,0,2,12,0,Replay
70,2,0,0,-1,-1,0,67.0,42,67,24,-19,79,26,162,1,2,1,2,0,0,0,2,12,0,Replay
70,2,0,0,-1,-1,0,67.0,42,67,24,-19,79,26,162,1,2,1,2,0,0,0,2,12,0,Replay
70,2,0,0,-1,-1,0,67.0,42,67,24,-19,79,26,162,1,2,1,2,0,0,0,2,12,0,Replay
70,2,0,0,-1,-1,0,67.0,42,67,24,-19,79,26,162,1,2,1,2,0,0,0,2,12,0,Replay
70,2,0,0,-1,-1,0,67.0,42,67,24,-19,79,26,162,1,2,1,2,0,0,0,2,12,0,Replay
70,2,0,0,-1,-1,0,67.0,42,67,24,-19,79,26,162,1,2,1,2,0,0,0,2,12,0,Replay
70,2,0,0,-1,-1,0,67.0,42,67,24,-19,79,26,162,1,2,1,2,0,0,0,2,12,0,Replay
70,2,0,0,-1,-1,0,67.0,42,67,24,-19,79,26,162,1,2,1,2,0,0,0,2,12,0,Replay
70,2,0,0,-1,-1,0,67.0,42,67,24,-19,79,26,60,1,0,1,0,0,0,0,2,12,0,Replay
80,2,0,0,-1,-1,0,66.0,43,67,32,-24,81,26,162,1,2,1,2,0,0,0,2,12,0,Replay
80,2,0,0,-1,-1,0,66.0,43,67,32,-24,81,75,44,0,1,0,1,0,0,266,2,8,13,Replay
80,2,0,0,-1,-1,0,66.0,43,67,32,-24,81,235,44,0,1,0,1,0,0,267,2,8,173,Replay
80,2,0,0,-1,-1,0,66.0,43,67,32,-24,81,26,60,1,0,1,0,0,0,0,2,12,0,Replay
80,2,0,0,-1,-1,0,66.0,43,67,32,-24,81,26,162,1,2,1,2,0,0,0,2,12,0,Replay
80,2,0,0,-1,-1,0,66.0,43,67,32,-24,81,231,44,0,1,0,1,0,0,268,2,8,169,Replay
80,2,0,0,-1,-1,0,66.0,43,67,32,-24,81,231,44,0,1,0,1,0,0,268,2,8,169,Replay
80,2,0,0,-1,-1,0,66.0,43,67,32,-24,81,231,44,0,1,0,1,0,0,268,2,8,169,Replay
80,2,0,0,-1,-1,0,66.0,43,67,32,-24,81,26,162,1,2,1,2,0,0,0,2,12,0,Replay
80,2,0,0,-1,-1,0,66.0,43,67,32,-24,81,26,60,1,0,1,0,0,0,0,2,12,0,Replay
80,2,0,0,-1,-1,0,66.0,43,67,32,-24,81,26,162,1,2,1,2,0,0,0,2,12,0,Replay
80,2,0,0,-1,-1,0,66.0,43,67,32,-24,81,86,44,1,0,1,0,0,0,160,2,8,0,Replay
80,2,0,0,-1,-1,0,66.0,43,66,-27,-14,85,26,162,1,2,1,2,0,0,0,2,12,0,Replay
80,2,0,0,-1,-1,0,66.0,43,66,-27,-14,85,26,162,1,2,1,2,0,0,0,2,12,0,Replay
80,2,0,0,-1,-1,0,66.0,43,66,-27,-14,85,26,162,1,2,1,2,0,0,0,2,12,0,Replay
80,2,0,0,-1,-1,0,66.0,43,66,-27,-14,85,26,162,1,2,1,2,0,0,0,2,12,0,Replay
80,2,0,0,-1,-1,0,66.0,43,66,-27,-14,85,26,162,1,2,1,2,0,0,0,2,12,0,Replay
80,2,0,0,-1,-1,0,66.0,43,66,-27,-14,85,26,162,1,2,1,2,0,0,0,2,12,0,Replay
80,2,0,0,-1,-1,0,66.0,43,66,-27,-14,85,26,162,1,2,1,2,0,0,0,2,12,0,Replay
80,2,0,0,-1,-1,0,66.0,43,66,-27,-14,85,26,162,1,2,1,2,0,0,0,2,12,0,Replay
80,2,0,0,-1,-1,0,66.0,43,66,-27,-14,85,26,162,1,2,1,2,0,0,0,2,12,0,Replay
80,2,0,0,-1,-1,0,66.0,43,66,-27,-14,85,228,44,0,1,0,1,0,0,311,2,8,166,Replay
80,2,0,0,-1,-1,0,66.0,43,66,-27,-14,85,98,320,4,1,4,1,0,0,456,0,5,0,Replay
80,2,0,0,-1,-1,0,66.0,43,66,-27,-14,85,98,320,4,1,4,1,0,0,456,0,5,0,Replay
80,1,-1,0,-1,-1,0,67.0,44,66,-16,-15,85,26,162,1,2,1,2,0,0,0,2,12,0,Replay
80,1,-1,0,-1,-1,0,67.0,44,66,-16,-15,85,26,60,1,0,1,0,0,0,0,2,12,0,Replay
80,1,-1,0,-1,-1,0,67.0,44,66,-16,-15,85,26,162,1,2,1,2,0,0,0,2,12,0,Replay
80,1,-1,0,-1,-1,0,67.0,44,66,-16,-15,85,229,44,0,1,0,1,0,0,312,2,8,167,Replay
80,1,-1,0,-1,-1,0,67.0,44,66,-16,-15,85,98,320,4,1,4,1,0,0,458,0,5,0,Replay
80,1,-1,0,-1,-1,0,67.0,44,66,-16,-15,85,98,320,4,1,4,1,0,0,458,0,5,0,Replay
80,1,-1,0,-1,-1,0,67.0,44,66,-16,-15,85,26,60,1,0,1,0,0,0,0,2,12,0,Replay
80,1,-1,0,-1,-1,0,67.0,44,66,-16,-15,85,26,162,1,2,1,2,0,0,0,2,12,0,Replay
80,1,-1,0,-1,-1,0,67.0,44,66,-16,-15,85,228,44,0,1,0,1,0,0,313,2,8,166,Replay
80,1,-1,0,-1,-1,0,67.0,44,66,-16,-15,85,228,44,0,1,0,1,0,0,313,2,8,166,Replay
80,1,-1,0,-1,-1,0,67.0,44,66,-16,-15,85,26,162,1,2,1,2,0,0,0,2,12,0,Replay
80,1,-1,0,-1,-1,0,67.0,44,66,-16,-15,85,26,162,1,2,1,2,0,0,0,2,12,0,Replay
80,0,-1,0,3,3,0,67.0,44,66,-3,-9,85,26,162,1,2,1,2,0,0,0,2,12,0,Replay
80,0,-1,0,3,3,0,67.0,44,66,-3,-9,85,26,162,1,2,1,2,0,0,0,2,12,0,Replay
80,0,-1,0,3,3,0,67.0,44,66,-3,-9,85,26,162,1,2,1,2,0,0,0,2,12,0,Replay
80,0,-1,0,3,3,0,67.0,44,66,-3,-9,85,26,162,1,2,1,2,0,0,0,2,12,0,Replay
80,0,-1,0,3,3,0,67.0,44,66,-3,-9,85,26,162,1,2,1,2,0,0,0,2,12,0,Replay
80,0,-1,0,3,3,0,67.0,44,66,-3,-9,85,26,162,1,2,1,2,0,0,0,2,12,0,Replay
80,0,-1,0,3,3,0,67.0,44,66,-3,-9,85,26,162,1,2,1,2,0,0,0,2,12,0,Replay
80,0,-1,0,3,3,0,67.0,44,66,-3,-9,85,26,162,1,2,1,2,0,0,0,2,12,0,Replay
80,0,-1,0,3,3,0,67.0,44,66,-3,-9,85,26,162,1,2,1,2,0,0,0,2,12,0,Replay
80,0,-1,0,3,3,0,67.0,44,66,-3,-9,85,228,44,0,1,0,1,0,0,354,2,8,166,Replay
80,0,-1,0,3,3,0,67.0,44,66,-3,-9,85,26,162,1,2,1,2,0,0,0,2,12,0,Replay
80,0,-1,0,3,3,0,67.0,44,66,-3,-9,85,26,60,1,0,1,0,0,0,0,2,12,0,Replay
80,0,0,0,0,0,0,67.0,45,66,-3,-9,84,26,162,1,2,1,2,0,0,0,2,12,0,Replay
80,0,0,0,0,0,0,67.0,45,66,-3,-9,84,230,44,0,1,0,1,0,0,355,2,8,168,Replay
80,0,0,0,0,0,0,67.0,45,66,-3,-9,84,230,44,0,1,0,1,0,0,355,2,8,168,Replay
80,0,0,0,0,0,0,67.0,45,66,-3,-9,84,26,60,1,0,1,0,0,0,0,2,12,0,Replay
80,0,0,0,0,0,0,67.0,45,66,-3,-9,84,64,44,0,1,0,1,0,0,356,2,8,2,Replay
80,0,0,0,0,0,0,67.0,45,66,-3,-9,84,26,162,1,2,1,2,0,0,0,2,12,0,Replay
80,0,0,0,0,0,0,67.0,45,66,-3,-9,84,230,44,0,1,0,1,0,0,357,2,8,168,Replay
80,0,0,0,0,0,0,67.0,45,66,-3,-9,84,26,162,1,2,1,2,0,0,0,2,12,0,Replay
80,0,0,0,0,0,0,67.0,45,66,-3,-9,84,26,162,1,2,1,2,0,0,0,2,12,0,Replay
80,0,0,0,0,0,0,67.0,45,66,-3,-9,84,26,162,1,2,1,2,0,0,0,2,12,0,Replay
80,0,0,0,0,0,0,67.0,45,66,-3,-9,84,26,162,1,2,1,2,0,0,0,2,12,0,Replay
80,0,0,0,0,0,0,67.0,45,66,-3,-9,84,26,162,1,2,1,2,0,0,0,2,12,0,Replay
70,0,-1,0,-2,0,0,67.0,45,66,3,-3,82,26,162,1,2,1,2,0,0,0,2,12,0,Replay
70,0,-1,0,-2,0,0,67.0,45,66,3,-3,82,26,162,1,2,1,2,0,0,0,2,12,0,Replay
70,0,-1,0,-2,0,0,67.0,45,66,3,-3,82,26,162,1,2,1,2,0,0,0,2,12,0,Replay
70,0,-1,0,-2,0,0,67.0,45,66,3,-3,82,26,162,1,2,1,2,0,0,0,2,12,0,Replay
70,0,-1,0,-2,0,0,67.0,45,66,3,-3,82,26,162,1,2,1,2,0,0,0,2,12,0,Replay
70,0,-1,0,-2,0,0,67.0,45,66,3,-3,82,26,162,1,2,1,2,0,0,0,2,12,0,Replay
70,0,-1,0,-2,0,0,67.0,45,66,3,-3,82,26,162,1,2,1,2,0,0,0,2,12,0,Replay
70,0,-1,0,-2,0,0,67.0,45,66,3,-3,82,26,162,1,2,1,2,0,0,0,2,12,0,Replay
70,0,-1,0,-2,0,0,67.0,45,66,3,-3,82,229,44,0,1,0,1,0,0,400,2,8,167,Replay
70,0,-1,0,-2,0,0,67.0,45,66,3,-3,82,26,60,1,0,1,0,0,0,0,2,12,0,Replay
70,0,-1,0,-2,0,0,67.0,45,66,3,-3,82,26,162,1,2,1,2,0,0,0,2,12,0,Replay
70,0,-1,0,-2,0,0,67.0,45,66,3,-3,82,231,44,0,1,0,1,0,0,401,2,8,169,Replay
70,0,-1,0,0,-1,0,67.0,46,66,-4,-10,81,26,60,1,0,1,0,0,0,0,2,12,0,Replay
70,0,-1,0,0,-1,0,67.0,46,66,-4,-10,81,26,162,1,2,1,2,0,0,0,2,12,0,Replay
70,0,-1,0,0,-1,0,67.0,46,66,-4,-10,81,26,162,1,2,1,2,0,0,0,2,12,0,Replay
70,0,-1,0,0,-1,0,67.0,46,66,-4,-10,81,26,162,1,2,1,2,0,0,0,2,12,0,Replay
70,0,-1,0,0,-1,0,67.0,46,66,-4,-10,81,26,162,1,2,1,2,0,0,0,2,12,0,Replay
70,0,-1,0,0,-1,0,67.0,46,66,-4,-10,81,26,162,1,2,1,2,0,0,0,2,12,0,Replay
70,0,-1,0,0,-1,0,67.0,46,66,-4,-10,81,26,162,1,2,1,2,0,0,0,2,12,0,Replay
70,0,-1,0,0,-1,0,67.0,46,66,-4,-10,81,26,162,1,2,1,2,0,0,0,2,12,0,Replay
70,0,-1,0,0,-1,0,67.0,46,66,-4,-10,81,98,320,3,1,3,1,0,0,562,0,5,0,Replay
70,0,-1,0,0,-1,0,67.0,46,66,-4,-10,81,98,320,3,1,3,1,0,0,562,0,5,0,Replay
70,0,-1,0,0,-1,0,67.0,46,66,-4,-10,81,98,320,3,1,3,1,0,0,563,0,5,0,Replay
70,0,-1,0,0,-1,0,67.0,46,66,-4,-10,81,236,44,0,1,0,1,0,0,442,2,8,174,Replay
70,0,-1,0,1,0,0,67.0,46,66,-3,-6,81,26,60,1,0,1,0,0,0,0,2,12,0,Replay
70,0,-1,0,1,0,0,67.0,46,66,-3,-6,81,237,44,0,1,0,1,0,0,443,2,8,175,Replay
70,0,-1,0,1,0,0,67.0,46,66,-3,-6,81,26,60,1,0,1,0,0,0,0,2,12,0,Replay
70,0,-1,0,1,0,0,67.0,46,66,-3,-6,81,26,162,1,2,1,2,0,0,0,2,12,0,Replay
70,0,-1,0,1,0,0,67.0,46,66,-3,-6,81,26,162,1,2,1,2,0,0,0,2,12,0,Replay
70,0,-1,0,1,0,0,67.0,46,66,-3,-6,81,26,162,1,2,1,2,0,0,0,2,12,0,Replay
70,0,-1,0,1,0,0,67.0,46,66,-3,-6,81,26,162,1,2,1,2,0,0,0,2,12,0,Replay
70,0,-1,0,1,0,0,67.0,46,66,-3,-6,81,26,162,1,2,1,2,0,0,0,2,12,0,Replay
70,0,-1,0,1,0,0,67.0,46,66,-3,-6,81,26,162,1,2,1,2,0,0,0,2,12,0,Replay
70,0,-1,0,1,0,0,67.0,46,66,-3,-6,81,237,320,0,1,0,1,0,0,460,2,8,175,Replay
70,0,-1,0,1,0,0,67.0,46,66,-3,-6,81,237,320,0,1,0,1,0,0,460,2,8,175,Replay
70,0,-1,0,1,0,0,67.0,46,66,-3,-6,81,237,320,0,1,0,1,0,0,460,2,8,175,Replay
70,0,0,0,0,0,7,67.0,47,66,-6,-5,81,26,162,1,2,1,2,0,0,0,2,12,0,Replay
70,0,0,0,0,0,7,67.0,47,66,-6,-5,81,26,162,1,2,1,2,0,0,0,2,12,0,Replay
70,0,0,0,0,0,7,67.0,47,66,-6,-5,81,26,162,1,2,1,2,0,0,0,2,12,0,Replay
70,0,0,0,0,0,7,67.0,47,66,-6,-5,81,26,60,1,0,1,0,0,0,0,2,12,0,Replay
70,0,0,0,0,0,7,67.0,47,66,-6,-5,81,26,162,1,2,1,2,0,0,0,2,12,0,Replay
70,0,0,0,0,0,7,67.0,47,66,-6,-5,81,236,44,0,1,0,1,0,0,486,2,8,174,Replay
70,0,0,0,0,0,7,67.0,47,66,-6,-5,81,26,60,1,0,1,0,0,0,0,2,12,0,Replay
70,0,0,0,0,0,7,67.0,47,66,-6,-5,81,26,162,1,2,1,2,0,0,0,2,12,0,Replay
70,0,0,0,0,0,7,67.0,47,66,-6,-5,81,236,44,0,1,0,1,0,0,487,2,8,174,Replay
70,0,0,0,0,0,7,67.0,47,66,-6,-5,81,26,162,1,2,1,2,0,0,0,2,12,0,Replay
70,0,0,0,0,0,7,67.0,47,66,-6,-5,81,26,162,1,2,1,2,0,0,0,2,12,0,Replay
70,0,0,0,0,0,7,67.0,47,66,-6,-5,81,26,314,1,2,1,2,0,0,0,2,12,0,Replay
70,0,0,0,0,0,37,67.0,47,66,-4,-6,81,26,314,1,2,1,2,0,0,0,2,12,0,Replay
70,0,0,0,0,0,37,67.0,47,66,-4,-6,81,26,314,1,2,1,2,0,0,0,2,12,0,Replay
70,0,0,0,0,0,37,67.0,47,66,-4,-6,81,26,314,1,2,1,2,0,0,0,2,12,0,Replay
70,0,0,0,0,0,37,67.0,47,66,-4,-6,81,26,314,1,2,1,2,0,0,0,2,12,0,Replay
70,0,0,0,0,0,37,67.0,47,66,-4,-6,81,26,314,1,2,1,2,0,0,0,2,12,0,Replay
70,0,0,0,0,0,37,67.0,47,66,-4,-6,81,26,314,1,2,1,2,0,0,0,2,12,0,Replay
70,0,0,0,0,0,37,67.0,47,66,-4,-6,81,26,314,1,2,1,2,0,0,0,2,12,0,Replay
70,0,0,0,0,0,37,67.0,47,66,-4,-6,81,26,314,1,2,1,2,0,0,0,2,12,0,Replay
70,0,0,0,0,0,37,67.0,47,66,-4,-6,81,26,314,1,2,1,2,0,0,0,2,12,0,Replay
70,0,0,0,0,0,37,67.0,47,66,-4,-6,81,26,314,1,2,1,2,0,0,0,2,12,0,Replay
70,0,0,0,0,0,37,67.0,47,66,-4,-6,81,26,314,1,2,1,2,0,0,0,2,12,0,Replay
70,0,0,0,0,0,37,67.0,47,66,-4,-6,81,26,314,1,2,1,2,0,0,0,2,12,0,Replay
70,0,0,0,0,0,73,67.0,48,66,-3,-13,82,26,314,1,2,1,2,0,0,0,2,12,0,Replay
70,0,0,0,0,0,73,67.0,48,66,-3,-13,82,26,314,1,2,1,2,0,0,0,2,12,0,Replay
70,0,0,0,0,0,73,67.0,48,66,-3,-13,82,26,314,1,2,1,2,0,0,0,2,12,0,Replay
70,0,0,0,0,0,73,67.0,48,66,-3,-13,82,26,314,1,2,1,2,0,0,0,2,12,0,Replay
70,0,0,0,0,0,73,67.0,48,66,-3,-13,82,26,314,1,2,1,2,0,0,0,2,12,0,Replay
70,0,0,0,0,0,73,67.0,48,66,-3,-13,82,26,314,1,2,1,2,0,0,0,2,12,0,Replay
70,0,0,0,0,0,73,67.0,48,66,-3,-13,82,26,314,1,2,1,2,0,0,0,2,12,0,Replay
70,0,0,0,0,0,73,67.0,48,66,-3,-13,82,26,314,1,2,1,2,0,0,0,2,12,0,Replay
70,0,0,0,0,0,73,67.0,48,66,-3,-13,82,26,314,1,2,1,2,0,0,0,2,12,0,Replay
70,0,0,0,0,0,73,67.0,48,66,-3,-13,82,26,314,1,2,1,2,0,0,0,2,12,0,Replay
70,0,0,0,0,0,73,67.0,48,66,-3,-13,82,26,314,1,2,1,2,0,0,0,2,12,0,Replay
70,0,0,0,0,0,73,67.0,48,66,-3,-13,82,26,314,1,2,1,2,0,0,0,2,12,0,Replay
70,0,0,0,0,0,103,67.0,48,66,-4,-14,82,26,314,1,2,1,2,0,0,0,2,12,0,Replay
70,0,0,0,0,0,103,67.0,48,66,-4,-14,82,26,314,1,2,1,2,0,0,0,2,12,0,Replay
70,0,0,0,0,0,103,67.0,48,66,-4,-14,82,26,314,1,2,1,2,0,0,0,2,12,0,Replay
70,0,0,0,0,0,103,67.0,48,66,-4,-14,82,26,314,1,2,1,2,0,0,0,2,12,0,Replay
70,0,0,0,0,0,103,67.0,48,66,-4,-14,82,26,314,1,2,1,2,0,0,0,2,12,0,Replay
70,0,0,0,0,0,103,67.0,48,66,-4,-14,82,26,314,1,2,1,2,0,0,0,2,12,0,Replay
70,0,0,0,0,0,103,67.0,48,66,-4,-14,82,26,314,1,2,1,2,0,0,0,2,12,0,Replay
70,0,0,0,0,0,103,67.0,48,66,-4,-14,82,26,314,1,2,1,2,0,0,0,2,12,0,Replay
70,0,0,0,0,0,103,67.0,48,66,-4,-14,82,26,314,1,2,1,2,0,0,0,2,12,0,Replay
70,0,0,0,0,0,103,67.0,48,66,-4,-14,82,26,314,1,2,1,2,0,0,0,2,12,0,Replay
70,0,0,0,0,0,103,67.0,48,66,-4,-14,82,26,314,1,2,1,2,0,0,0,2,12,0,Replay
70,0,0,0,0,0,103,67.0,48,66,-4,-14,82,26,314,1,2,1,2,0,0,0,2,12,0,Replay
70,0,0,0,0,0,133,67.0,49,66,-1,-18,81,26,314,1,2,1,2,0,0,0,2,12,0,Replay
70,0,0,0,0,0,133,67.0,49,66,-1,-18,81,26,314,1,2,1,2,0,0,0,2,12,0,Replay
70,0,0,0,0,0,133,67.0,49,66,-1,-18,81,26,314,1,2,1,2,0,0,0,2,12,0,Replay
70,0,0,0,0,0,133,67.0,49,66,-1,-18,81,26,314,1,2,1,2,0,0,0,2,12,0,Replay
70,0,0,0,0,0,133,67.0,49,66,-1,-18,81,26,314,1,2,1,2,0,0,0,2,12,0,Replay
70,0,0,0,0,0,133,67.0,49,66,-1,-18,81,26,314,1,2,1,2,0,0,0,2,12,0,Replay
70,0,0,0,0,0,133,67.0,49,66,-1,-18,81,26,314,1,2,1,2,0,0,0,2,12,0,Replay
70,0,0,0,0,0,133,67.0,49,66,-1,-18,81,26,314,1,2,1,2,0,0,0,2,12,0,Replay
70,0,0,0,0,0,133,67.0,49,66,-1,-18,81,26,314,1,2,1,2,0,0,0,2,12,0,Replay
70,0,0,0,0,0,133,67.0,49,66,-1,-18,81,26,314,1,2,1,2,0,0,0,2,12,0,Replay
70,0,0,0,0,0,133,67.0,49,66,-1,-18,81,26,314,1,2,1,2,0,0,0,2,12,0,Replay
70,0,0,0,0,0,133,67.0,49,66,-1,-18,81,26,314,1,2,1,2,0,0,0,2,12,0,Replay
70,0,0,0,0,0,162,67.0,49,66,-8,-23,81,26,314,1,2,1,2,0,0,0,2,12,0,Replay
70,0,0,0,0,0,162,67.0,49,66,-8,-23,81,26,314,1,2,1,2,0,0,0,2,12,0,Replay
70,0,0,0,0,0,162,67.0,49,66,-8,-23,81,26,314,1,2,1,2,0,0,0,2,12,0,Replay
70,0,0,0,0,0,162,67.0,49,66,-8,-23,81,26,314,1,2,1,2,0,0,0,2,12,0,Replay
70,0,0,0,0,0,162,67.0,49,66,-8,-23,81,26,314,1,2,1,2,0,0,0,2,12,0,Replay
70,0,0,0,0,0,162,67.0,49,66,-8,-23,81,26,314,1,2,1,2,0,0,0,2,12,0,Replay
70,0,0,0,0,0,162,67.0,49,66,-8,-23,81,26,314,1,2,1,2,0,0,0,2,12,0,Replay
70,0,0,0,0,0,162,67.0,49,66,-8,-23,81,26,314,1,2,1,2,0,0,0,2,12,0,Replay
70,0,0,0,0,0,162,67.0,49,66,-8,-23,81,26,162,1,2,1,2,0,0,0,2,12,0,Replay
70,0,0,0,0,0,162,67.0,49,66,-8,-23,81,26,162,1,2,1,2,0,0,0,2,12,0,Replay
70,0,0,0,0,0,162,67.0,49,66,-8,-23,81,26,314,1,2,1,2,0,0,0,2,12,0,Replay
70,0,0,0,0,0,162,67.0,49,66,-8,-23,81,26,314,1,2,1,2,0,0,0,2,12,0,Replay
70,0,0,0,0,1,175,67.0,50,65,-8,-27,80,26,314,1,2,1,2,0,0,0,2,12,0,Replay
70,0,0,0,0,1,175,67.0,50,65,-8,-27,80,26,314,1,2,1,2,0,0,0,2,12,0,Replay
70,0,0,0,0,1,175,67.0,50,65,-8,-27,80,26,314,1,2,1,2,0,0,0,2,12,0,Replay
70,0,0,0,0,1,175,67.0,50,65,-8,-27,80,26,314,1,2,1,2,0,0,0,2,12,0,Replay
70,0,0,0,0,1,175,67.0,50,65,-8,-27,80,26,314,1,2,1,2,0,0,0,2,12,0,Replay
70,0,0,0,0,1,175,67.0,50,65,-8,-27,80,26,314,1,2,1,2,0,0,0,2,12,0,Replay
70,0,0,0,0,1,175,67.0,50,65,-8,-27,80,26,314,1,2,1,2,0,0,0,2,12,0,Replay
70,0,0,0,0,1,175,67.0,50,65,-8,-27,80,26,314,1,2,1,2,0,0,0,2,12,0,Replay
70,0,0,0,0,1,175,67.0,50,65,-8,-27,80,26,314,1,2,1,2,0,0,0,2,12,0,Replay
70,0,0,0,0,1,175,67.0,50,65,-8,-27,80,26,314,1,2,1,2,0,0,0,2,12,0,Replay
70,0,0,0,0,1,175,67.0,50,65,-8,-27,80,26,314,1,2,1,2,0,0,0,2,12,0,Replay
70,0,0,0,0,1,175,67.0,50,65,-8,-27,80,26,314,1,2,1,2,0,0,0,2,12,0,Replay
70,0,0,0,0,0,178,67.0,50,65,-8,-25,81,26,314,1,2,1,2,0,0,0,2,12,0,Replay
70,0,0,0,0,0,178,67.0,50,65,-8,-25,81,26,314,1,2,1,2,0,0,0,2,12,0,Replay
70,0,0,0,0,0,178,67.0,50,65,-8,-25,81,26,314,1,2,1,2,0,0,0,2,12,0,Replay
70,0,0,0,0,0,178,67.0,50,65,-8,-25,81,26,314,1,2,1,2,0,0,0,2,12,0,Replay
70,0,0,0,0,0,178,67.0,50,65,-8,-25,81,26,314,1,2,1,2,0,0,0,2,12,0,Replay
70,0,0,0,0,0,178,67.0,50,65,-8,-25,81,26,314,1,2,1,2,0,0,0,2,12,0,Replay
70,0,0,0,0,0,178,67.0,50,65,-8,-25,81,26,314,1,2,1,2,0,0,0,2,12,0,Replay
70,0,0,0,0,0,178,67.0,50,65,-8,-25,81,26,314,1,2,1,2,0,0,0,2,12,0,Replay
70,0,0,0,0,0,178,67.0,50,65,-8,-25,81,26,314,1,2,1,2,0,0,0,2,12,0,Replay
70,0,0,0,0,0,178,67.0,50,65,-8,-25,81,26,314,1,2,1,2,0,0,0,2,12,0,Replay
70,0,0,0,0,0,178,67.0,50,65,-8,-25,81,26,314,1,2,1,2,0,0,0,2,12,0,Replay
70,0,0,0,0,0,178,67.0,50,65,-8,-25,81,26,314,1,2,1,2,0,0,0,2,12,0,Replay
70,0,-5,0,0,7,178,67.0,51,65,-16,-16,82,26,314,1,2,1,2,0,0,0,2,12,0,Replay
70,0,-5,0,0,7,178,67.0,51,65,-16,-16,82,26,314,1,2,1,2,0,0,0,2,12,0,Replay
70,0,-5,0,0,7,178,67.0,51,65,-16,-16,82,26,314,1,2,1,2,0,0,0,2,12,0,Replay
70,0,-5,0,0,7,178,67.0,51,65,-16,-16,82,26,314,1,2,1,2,0,0,0,2,12,0,Replay
70,0,-5,0,0,7,178,67.0,51,65,-16,-16,82,26,314,1,2,1,2,0,0,0,2,12,0,Replay
70,0,-5,0,0,7,178,67.0,51,65,-16,-16,82,26,314,1,2,1,2,0,0,0,2,12,0,Replay
70,0,-5,0,0,7,178,67.0,51,65,-16,-16,82,26,314,1,2,1,2,0,0,0,2,12,0,Replay
70,0,-5,0,0,7,178,67.0,51,65,-16,-16,82,26,314,1,2,1,2,0,0,0,2,12,0,Replay
70,0,-5,0,0,7,178,67.0,51,65,-16,-16,82,26,314,1,2,1,2,0,0,0,2,12,0,Replay
70,0,-5,0,0,7,178,67.0,51,65,-16,-16,82,26,314,1,2,1,2,0,0,0,2,12,0,Replay
70,0,-5,0,0,7,178,67.0,51,65,-16,-16,82,26,314,1,2,1,2,0,0,0,2,12,0,Replay
70,0,-5,0,0,7,178,67.0,51,65,-16,-16,82,26,314,1,2,1,2,0,0,0,2,12,0,Replay
80,0,-8,0,0,5,177,67.0,51,65,-25,36,79,26,314,1,2,1,2,0,0,0,2,12,0,Replay
80,0,-8,0,0,5,177,67.0,51,65,-25,36,79,26,314,1,2,1,2,0,0,0,2,12,0,Replay
80,0,-8,0,0,5,177,67.0,51,65,-25,36,79,26,314,1,2,1,2,0,0,0,2,12,0,Replay
80,0,-8,0,0,5,177,67.0,51,65,-25,36,79,26,314,1,2,1,2,0,0,0,2,12,0,Replay
80,0,-8,0,0,5,177,67.0,51,65,-25,36,79,26,314,1,2,1,2,0,0,0,2,12,0,Replay
80,0,-8,0,0,5,177,67.0,51,65,-25,36,79,26,314,1,2,1,2,0,0,0,2,12,0,Replay
80,0,-8,0,0,5,177,67.0,51,65,-25,36,79,30,314,1,2,1,2,0,0,216,0,11,0,Replay
80,0,-8,0,0,5,177,67.0,51,65,-25,36,79,30,314,1,2,1,2,0,0,216,0,11,0,Replay
80,0,-8,0,0,5,177,67.0,51,65,-25,36,79,30,314,1,2,1,2,0,0,216,0,11,0,Replay
80,0,-8,0,0,5,177,67.0,51,65,-25,36,79,30,314,1,2,1,2,0,0,217,0,11,0,Replay
80,0,-8,0,0,5,177,67.0,51,65,-25,36,79,30,314,1,2,1,2,0,0,217,0,11,0,Replay
80,0,-8,0,0,5,177,67.0,51,65,-25,36,79,30,314,1,2,1,2,0,0,217,0,11,0,Replay
80,0,-9,0,0,4,178,67.0,52,65,-25,36,79,30,314,1,2,1,2,0,0,217,0,11,0,Replay
80,0,-9,0,0,4,178,67.0,52,65,-25,36,79,30,314,1,2,1,2,0,0,217,0,11,0,Replay
80,0,-9,0,0,4,178,67.0,52,65,-25,36,79,30,314,1,2,1,2,0,0,217,0,11,0,Replay
80,0,-9,0,0,4,178,67.0,52,65,-25,36,79,30,314,1,2,1,2,0,0,217,0,11,0,Replay
80,0,-9,0,0,4,178,67.0,52,65,-25,36,79,30,314,1,2,1,2,0,0,217,0,11,0,Replay
80,0,-9,0,0,4,178,67.0,52,65,-25,36,79,30,314,1,2,1,2,0,0,217,0,11,0,Replay
80,0,-9,0,0,4,178,67.0,52,65,-25,36,79,30,314,1,2,1,2,0,0,217,0,11,0,Replay
80,0,-9,0,0,4,178,67.0,52,65,-25,36,79,30,314,1,2,1,2,0,0,217,0,11,0,Replay
80,0,-9,0,0,4,178,67.0,52,65,-25,36,79,30,314,1,2,1,2,0,0,217,0,11,0,Replay
80,0,-9,0,0,4,178,67.0,52,65,-25,36,79,30,314,1,2,1,2,0,0,217,0,11,0,Replay
80,0,-9,0,0,4,178,67.0,52,65,-25,36,79,30,314,1,2,1,2,0,0,217,0,11,0,Replay
80,0,-9,0,0,4,178,67.0,52,65,-25,36,79,30,314,1,2,1,2,0,0,217,0,11,0,Replay
80,0,-9,0,0,5,178,68.0,52,65,-25,36,79,30,314,1,2,1,2,0,0,217,0,11,0,Replay
80,0,-9,0,0,5,178,68.0,52,65,-25,36,79,30,314,1,2,1,2,0,0,217,0,11,0,Replay
80,0,-9,0,0,5,178,68.0,52,65,-25,36,79,30,314,1,2,1,2,0,0,217,0,11,0,Replay
80,0,-9,0,0,5,178,68.0,52,65,-25,36,79,30,314,1,2,1,2,0,0,217,0,11,0,Replay
80,0,-9,0,0,5,178,68.0,52,65,-25,36,79,30,314,1,2,1,2,0,0,217,0,11,0,Replay
80,0,-9,0,0,5,178,68.0,52,65,-25,36,79,30,314,1,2,1,2,0,0,217,0,11,0,Replay
80,0,-9,0,0,5,178,68.0,52,65,-25,36,79,30,314,1,2,1,2,0,0,217,0,11,0,Replay
80,0,-9,0,0,5,178,68.0,52,65,-25,36,79,30,314,1,2,1,2,0,0,217,0,11,0,Replay
80,0,-9,0,0,5,178,68.0,52,65,-25,36,79,30,314,1,2,1,2,0,0,217,0,11,0,Replay
80,0,-9,0,0,5,178,68.0,52,65,-25,36,79,30,314,1,2,1,2,0,0,217,0,11,0,Replay
80,0,-9,0,0,5,178,68.0,52,65,-25,36,79,30,314,1,2,1,2,0,0,217,0,11,0,Replay
80,0,-9,0,0,5,178,68.0,52,65,-25,36,79,30,314,1,2,1,2,0,0,217,0,11,0,Replay
40,0,-1,31,6,-5,-162,68.0,53,65,-25,36,79,30,314,1,2,1,2,0,0,217,0,11,0,Replay
40,0,-1,31,6,-5,-162,68.0,53,65,-25,36,79,30,314,1,2,1,2,0,0,217,0,11,0,Replay
40,0,-1,31,6,-5,-162,68.0,53,65,-25,36,79,30,314,1,2,1,2,0,0,217,0,11,0,Replay
40,0,-1,31,6,-5,-162,68.0,53,65,-25,36,79,30,314,1,2,1,2,0,0,217,0,11,0,Replay
40,0,-1,31,6,-5,-162,68.0,53,65,-25,36,79,30,314,1,2,1,2,0,0,217,0,11,0,Replay
40,0,-1,31,6,-5,-162,68.0,53,65,-25,36,79,30,314,1,2,1,2,0,0,217,0,11,0,Replay
40,0,-1,31,6,-5,-162,68.0,53,65,-25,36,79,30,314,1,2,1,2,0,0,218,0,11,0,Replay
40,0,-1,31,6,-5,-162,68.0,53,65,-25,36,79,30,314,1,2,1,2,0,0,218,0,11,0,Replay
40,0,-1,31,6,-5,-162,68.0,53,65,-25,36,79,30,314,1,2,1,2,0,0,218,0,11,0,Replay
40,0,-1,31,6,-5,-162,68.0,53,65,-25,36,79,30,314,1,2,1,2,0,0,218,0,11,0,Replay
40,0,-1,31,6,-5,-162,68.0,53,65,-25,36,79,30,314,1,2,1,2,0,0,218,0,11,0,Replay
40,0,-1,31,6,-5,-162,68.0,53,65,-25,36,79,30,314,1,2,1,2,0,0,218,0,11,0,Replay
80,0,0,0,-1,0,0,69.0,10,57,1,12,89,30,314,1,2,1,2,0,0,218,0,11,0,Replay
80,0,0,0,-1,0,0,69.0,10,57,1,12,89,30,314,1,2,1,2,0,0,218,0,11,0,Replay
80,0,0,0,-1,0,0,69.0,10,57,1,12,89,30,314,1,2,1,2,0,0,218,0,11,0,Replay
80,0,0,0,-1,0,0,69.0,10,57,1,12,89,30,314,1,2,1,2,0,0,218,0,11,0,Replay
80,0,0,0,-1,0,0,69.0,10,57,1,12,89,30,314,1,2,1,2,0,0,218,0,11,0,Replay
80,0,0,0,-1,0,0,69.0,10,57,1,12,89,30,314,1,2,1,2,0,0,218,0,11,0,Replay
80,0,0,0,-1,0,0,69.0,10,57,1,12,89,30,314,1,2,1,2,0,0,218,0,11,0,Replay
80,0,0,0,-1,0,0,69.0,10,57,1,12,89,30,314,1,2,1,2,0,0,218,0,11,0,Replay
80,0,0,0,-1,0,0,69.0,10,57,1,12,89,30,314,1,2,1,2,0,0,218,0,11,0,Replay
80,0,0,0,-1,0,0,69.0,10,57,1,12,89,30,314,1,2,1,2,0,0,218,0,11,0,Replay
80,0,0,0,-1,0,0,69.0,10,57,1,12,89,30,314,1,2,1,2,0,0,218,0,11,0,Replay
80,0,0,0,-1,0,0,69.0,10,57,1,12,89,30,314,1,2,1,2,0,0,218,0,11,0,Replay
80,0,0,0,-1,0,0,69.0,11,57,2,12,89,30,314,1,2,1,2,0,0,218,0,11,0,Replay
80,0,0,0,-1,0,0,69.0,11,57,2,12,89,24,0,1,1,1,1,0,0,16,2,4,0,Replay
80,0,0,0,-1,0,0,69.0,11,57,2,12,89,24,0,1,1,1,1,0,0,18,2,4,0,Replay
80,0,0,0,-1,0,0,69.0,11,57,2,12,89,104,0,5,1,5,1,0,0,50,0,8,0,Replay
80,0,0,0,-1,0,0,69.0,11,57,2,12,89,98,320,0,1,0,1,0,0,118,0,5,0,Replay
80,0,0,0,-1,0,0,69.0,11,57,2,12,89,30,314,1,0,1,0,0,0,8,0,11,0,Replay
80,0,0,0,-1,0,0,69.0,11,57,2,12,89,30,320,0,1,0,1,0,0,119,0,11,0,Replay
80,0,0,0,-1,0,0,69.0,11,57,2,12,89,74,314,1,0,1,0,0,0,9,0,0,0,Replay
80,0,0,0,-1,0,0,69.0,11,57,2,12,89,72,320,0,1,0,1,0,0,120,0,1,0,Replay
80,0,0,0,-1,0,0,69.0,11,57,2,12,89,26,60,1,0,1,0,0,0,0,2,12,0,Replay
80,0,0,0,-1,0,0,69.0,11,57,2,12,89,98,320,4,1,4,1,0,0,128,0,5,0,Replay
80,0,0,0,-1,0,0,69.0,11,57,2,12,89,26,60,1,0,1,0,0,0,0,2,12,0,Replay
80,0,0,0,0,0,0,69.0,11,57,2,13,88,98,320,4,1,4,1,0,0,131,0,5,0,Replay
80,0,0,0,0,0,0,69.0,11,57,2,13,88,98,320,4,1,4,1,0,0,131,0,5,0,Replay
80,0,0,0,0,0,0,69.0,11,57,2,13,88,98,320,4,1,4,1,0,0,131,0,5,0,Replay
80,0,0,0,0,0,0,69.0,11,57,2,13,88,98,320,2,1,2,1,0,0,136,0,5,0,Replay
80,0,0,0,0,0,0,69.0,11,57,2,13,88,30,314,1,2,1,2,0,0,219,0,11,0,Replay
80,0,0,0,0,0,0,69.0,11,57,2,13,88,30,320,2,1,2,1,0,0,145,0,11,0,Replay
80,0,0,0,0,0,0,69.0,11,57,2,13,88,96,314,1,2,1,2,0,0,220,0,0,0,Replay
80,0,0,0,0,0,0,69.0,11,57,2,13,88,96,314,1,2,1,2,0,0,220,0,0,0,Replay
80,0,0,0,0,0,0,69.0,11,57,2,13,88,72,320,2,1,2,1,0,0,147,0,1,0,Replay
80,0,0,0,0,0,0,69.0,11,57,2,13,88,26,162,1,2,1,2,0,0,0,2,12,0,Replay
80,0,0,0,0,0,0,69.0,11,57,2,13,88,26,162,1,2,1,2,0,0,0,2,12,0,Replay
80,0,0,0,0,0,0,69.0,11,57,2,13,88,26,162,1,2,1,2,0,0,0,2,12,0,Replay
80,0,0,0,0,0,0,69.0,12,57,0,12,88,26,162,1,2,1,2,0,0,0,2,12,0,Replay
80,0,0,0,0,0,0,69.0,12,57,0,12,88,26,162,1,2,1,2,0,0,0,2,12,0,Replay
80,0,0,0,0,0,0,69.0,12,57,0,12,88,26,162,1,2,1,2,0,0,0,2,12,0,Replay
80,0,0,0,0,0,0,69.0,12,57,0,12,88,26,162,1,2,1,2,0,0,0,2,12,0,Replay
80,0,0,0,0,0,0,69.0,12,57,0,12,88,26,162,1,2,1,2,0,0,0,2,12,0,Replay
80,0,0,0,0,0,0,69.0,12,57,0,12,88,26,162,1,2,1,2,0,0,0,2,12,0,Replay
80,0,0,0,0,0,0,69.0,12,57,0,12,88,26,162,1,2,1,2,0,0,0,2,12,0,Replay
80,0,0,0,0,0,0,69.0,12,57,0,12,88,26,162,1,2,1,2,0,0,0,2,12,0,Replay
80,0,0,0,0,0,0,69.0,12,57,0,12,88,26,162,1,2,1,2,0,0,0,2,12,0,Replay
80,0,0,0,0,0,0,69.0,12,57,0,12,88,26,162,1,2,1,2,0,0,0,2,12,0,Replay
80,0,0,0,0,0,0,69.0,12,57,0,12,88,86,44,1,0,1,0,0,0,65,2,8,0,Replay
80,0,0,0,0,0,0,69.0,12,57,0,12,88,234,44,0,1,0,1,0,0,6,2,8,172,Replay
80,0,0,0,0,0,0,69.0,12,57,0,13,87,26,60,1,0,1,0,0,0,0,2,12,0,Replay
80,0,0,0,0,0,0,69.0,12,57,0,13,87,26,162,1,2,1,2,0,0,0,2,12,0,Replay
80,0,0,0,0,0,0,69.0,12,57,0,13,87,74,44,0,1,0,1,0,0,7,2,8,12,Replay
80,0,0,0,0,0,0,69.0,12,57,0,13,87,234,44,0,1,0,1,0,0,8,2,8,172,Replay
80,0,0,0,0,0,0,69.0,12,57,0,13,87,65,44,1,0,1,0,0,0,69,2,8,3,Replay
80,0,0,0,0,0,0,69.0,12,57,0,13,87,26,60,1,0,1,0,0,0,0,2,12,0,Replay
80,0,0,0,0,0,0,69.0,12,57,0,13,87,26,162,1,2,1,2,0,0,0,2,12,0,Replay
80,0,0,0,0,0,0,69.0,12,57,0,13,87,64,44,0,1,0,1,0,0,9,2,8,2,Replay
80,0,0,0,0,0,0,69.0,12,57,0,13,87,86,44,1,0,1,0,0,0,70,2,8,0,Replay
80,0,0,0,0,0,0,69.0,12,57,0,13,87,234,44,0,1,0,1,0,0,10,2,8,172,Replay
80,0,0,0,0,0,0,69.0,12,57,0,13,87,234,44,0,1,0,1,0,0,10,2,8,172,Replay
80,0,0,0,0,0,0,69.0,12,57,0,13,87,26,162,1,2,1,2,0,0,0,2,12,0,Replay
80,0,0,0,0,-3,0,69.0,13,57,0,17,85,26,162,1,2,1,2,0,0,0,2,12,0,Replay
80,0,0,0,0,-3,0,69.0,13,57,0,17,85,26,162,1,2,1,2,0,0,0,2,12,0,Replay
80,0,0,0,0,-3,0,69.0,13,57,0,17,85,26,162,1,2,1,2,0,0,0,2,12,0,Replay
80,0,0,0,0,-3,0,69.0,13,57,0,17,85,26,162,1,2,1,2,0,0,0,2,12,0,Replay
80,0,0,0,0,-3,0,69.0,13,57,0,17,85,26,162,1,2,1,2,0,0,0,2,12,0,Replay
80,0,0,0,0,-3,0,69.0,13,57,0,17,85,26,60,1,0,1,0,0,0,0,2,12,0,Replay
80,0,0,0,0,-3,0,69.0,13,57,0,17,85,26,162,1,2,1,2,0,0,0,2,12,0,Replay
80,0,0,0,0,-3,0,69.0,13,57,0,17,85,229,44,0,1,0,1,0,0,50,2,8,167,Replay
80,0,0,0,0,-3,0,69.0,13,57,0,17,85,75,44,0,1,0,1,0,0,51,2,8,13,Replay
80,0,0,0,0,-3,0,69.0,13,57,0,17,85,86,44,1,0,1,0,0,0,96,2,8,0,Replay
80,0,0,0,0,-3,0,69.0,13,57,0,17,85,26,60,1,0,1,0,0,0,0,2,12,0,Replay
80,0,0,0,0,-3,0,69.0,13,57,0,17,85,26,162,1,2,1,2,0,0,0,2,12,0,Replay
80,0,-1,0,0,0,0,69.0,13,57,-1,11,85,229,44,0,1,0,1,0,0,52,2,8,167,Replay
80,0,-1,0,0,0,0,69.0,13,57,-1,11,85,229,44,0,1,0,1,0,0,52,2,8,167,Replay
80,0,-1,0,0,0,0,69.0,13,57,-1,11,85,229,44,0,1,0,1,0,0,52,2,8,167,Replay
80,0,-1,0,0,0,0,69.0,13,57,-1,11,85,229,44,0,1,0,1,0,0,52,2,8,167,Replay
80,0,-1,0,0,0,0,69.0,13,57,-1,11,85,229,44,0,1,0,1,0,0,52,2,8,167,Replay
80,0,-1,0,0,0,0,69.0,13,57,-1,11,85,229,44,0,1,0,1,0,0,52,2,8,167,Replay
80,0,-1,0,0,0,0,69.0,13,57,-1,11,85,229,320,0,1,0,1,0,0,52,2,8,167,Replay
80,0,-1,0,0,0,0,69.0,13,57,-1,11,85,26,162,1,2,1,2,0,0,0,2,12,0,Replay
80,0,-1,0,0,0,0,69.0,13,57,-1,11,85,26,162,1,2,1,2,0,0,0,2,12,0,Replay
80,0,-1,0,0,0,0,69.0,13,57,-1,11,85,26,162,1,2,1,2,0,0,0,2,12,0,Replay
80,0,-1,0,0,0,0,69.0,13,57,-1,11,85,26,162,1,2,1,2,0,0,0,2,12,0,Replay
80,0,-1,0,0,0,0,69.0,13,57,-1,11,85,26,162,1,2,1,2,0,0,0,2,12,0,Replay
70,0,-1,0,0,0,0,69.0,14,57,-2,6,83,26,162,1,2,1,2,0,0,0,2,12,0,Replay
70,0,-1,0,0,0,0,69.0,14,57,-2,6,83,26,162,1,2,1,2,0,0,0,2,12,0,Replay
70,0,-1,0,0,0,0,69.0,14,57,-2,6,83,26,162,1,2,1,2,0,0,0,2,12,0,Replay
70,0,-1,0,0,0,0,69.0,14,57,-2,6,83,226,320,0,1,0,1,0,0,90,2,8,164,Replay
70,0,-1,0,0,0,0,69.0,14,57,-2,6,83,228,44,0,1,0,1,0,0,93,2,8,166,Replay
70,0,-1,0,0,0,0,69.0,14,57,-2,6,83,86,44,1,0,1,0,0,0,111,2,8,0,Replay
70,0,-1,0,0,0,0,69.0,14,57,-2,6,83,26,60,1,0,1,0,0,0,0,2,12,0,Replay
70,0,-1,0,0,0,0,69.0,14,57,-2,6,83,26,162,1,2,1,2,0,0,0,2,12,0,Replay
70,0,-1,0,0,0,0,69.0,14,57,-2,6,83,226,44,0,1,0,1,0,0,94,2,8,164,Replay
70,0,-1,0,0,0,0,69.0,14,57,-2,6,83,26,162,1,2,1,2,0,0,0,2,12,0,Replay
70,0,-1,0,0,0,0,69.0,14,57,-2,6,83,26,162,1,2,1,2,0,0,0,2,12,0,Replay
70,0,-1,0,0,0,0,69.0,14,57,-2,6,83,26,162,1,2,1,2,0,0,0,2,12,0,Replay
70,0,0,0,0,0,0,69.0,14,57,-3,8,83,26,162,1,2,1,2,0,0,0,2,12,0,Replay
70,0,0,0,0,0,0,69.0,14,57,-3,8,83,26,162,1,2,1,2,0,0,0,2,12,0,Replay
70,0,0,0,0,0,0,69.0,14,57,-3,8,83,228,44,0,1,0,1,0,0,95,2,8,166,Replay
70,0,0,0,0,0,0,69.0,14,57,-3,8,83,86,44,1,0,1,0,0,0,113,2,8,0,Replay
70,0,0,0,0,0,0,69.0,14,57,-3,8,83,26,162,1,2,1,2,0,0,0,2,12,0,Replay
70,0,0,0,0,0,0,69.0,14,57,-3,8,83,26,162,1,2,1,2,0,0,0,2,12,0,Replay
70,0,0,0,0,0,0,69.0,14,57,-3,8,83,26,162,1,2,1,2,0,0,0,2,12,0,Replay
70,0,0,0,0,0,0,69.0,14,57,-3,8,83,26,162,1,2,1,2,0,0,0,2,12,0,Replay
70,0,0,0,0,0,0,69.0,14,57,-3,8,83,26,162,1,2,1,2,0,0,0,2,12,0,Replay
70,0,0,0,0,0,0,69.0,14,57,-3,8,83,26,162,1,2,1,2,0,0,0,2,12,0,Replay
70,0,0,0,0,0,0,69.0,14,57,-3,8,83,26,162,1,2,1,2,0,0,0,2,12,0,Replay
70,0,0,0,0,0,0,69.0,14,57,-3,8,83,226,320,0,1,0,1,0,0,119,2,8,164,Replay
70,0,0,0,0,0,0,69.0,15,57,-2,10,84,26,162,1,2,1,2,0,0,0,2,12,0,Replay
70,0,0,0,0,0,0,69.0,15,57,-2,10,84,26,162,1,2,1,2,0,0,0,2,12,0,Replay
70,0,0,0,0,0,0,69.0,15,57,-2,10,84,26,162,1,2,1,2,0,0,0,2,12,0,Replay
70,0,0,0,0,0,0,69.0,15,57,-2,10,84,26,162,1,2,1,2,0,0,0,2,12,0,Replay
70,0,0,0,0,0,0,69.0,15,57,-2,10,84,26,162,1,2,1,2,0,0,0,2,12,0,Replay
70,0,0,0,0,0,0,69.0,15,57,-2,10,84,26,162,1,2,1,2,0,0,0,2,12,0,Replay
70,0,0,0,0,0,0,69.0,15,57,-2,10,84,231,44,0,1,0,1,0,0,136,2,8,169,Replay
70,0,0,0,0,0,0,69.0,15,57,-2,10,84,26,162,1,2,1,2,0,0,0,2,12,0,Replay
70,0,0,0,0,0,0,69.0,15,57,-2,10,84,26,60,1,0,1,0,0,0,0,2,12,0,Replay
70,0,0,0,0,0,0,69.0,15,57,-2,10,84,26,162,1,2,1,2,0,0,0,2,12,0,Replay
70,0,0,0,0,0,0,69.0,15,57,-2,10,84,231,44,0,1,0,1,0,0,137,2,8,169,Replay
70,0,0,0,0,0,0,69.0,15,57,-2,10,84,26,162,1,2,1,2,0,0,0,2,12,0,Replay
80,0,0,0,0,0,0,69.0,15,57,-2,12,85,26,60,1,0,1,0,0,0,0,2,12,0,Replay
80,0,0,0,0,0,0,69.0,15,57,-2,12,85,26,162,1,2,1,2,0,0,0,2,12,0,Replay
80,0,0,0,0,0,0,69.0,15,57,-2,12,85,26,162,1,2,1,2,0,0,0,2,12,0,Replay
80,0,0,0,0,0,0,69.0,15,57,-2,12,85,26,162,1,2,1,2,0,0,0,2,12,0,Replay
80,0,0,0,0,0,0,69.0,15,57,-2,12,85,26,162,1,2,1,2,0,0,0,2,12,0,Replay
80,0,0,0,0,0,0,69.0,15,57,-2,12,85,26,162,1,2,1,2,0,0,0,2,12,0,Replay
80,0,0,0,0,0,0,69.0,15,57,-2,12,85,26,162,1,2,1,2,0,0,0,2,12,0,Replay
80,0,0,0,0,0,0,69.0,15,57,-2,12,85,26,162,1,2,1,2,0,0,0,2,12,0,Replay
80,0,0,0,0,0,0,69.0,15,57,-2,12,85,26,162,1,2,1,2,0,0,0,2,12,0,Replay
80,0,0,0,0,0,0,69.0,15,57,-2,12,85,26,162,1,2,1,2,0,0,0,2,12,0,Replay
80,0,0,0,0,0,0,69.0,15,57,-2,12,85,26,162,1,2,1,2,0,0,0,2,12,0,Replay
80,0,0,0,0,0,0,69.0,15,57,-2,12,85,26,162,1,2,1,2,0,0,0,2,12,0,Replay
80,0,0,0,0,0,0,68.0,16,57,-3,15,85,229,44,0,1,0,1,0,0,179,2,8,167,Replay
80,0,0,0,0,0,0,68.0,16,57,-3,15,85,26,162,1,2,1,2,0,0,0,2,12,0,Replay
80,0,0,0,0,0,0,68.0,16,57,-3,15,85,26,60,1,0,1,0,0,0,0,2,12,0,Replay
80,0,0,0,0,0,0,68.0,16,57,-3,15,85,26,162,1,2,1,2,0,0,0,2,12,0,Replay
80,0,0,0,0,0,0,68.0,16,57,-3,15,85,26,60,1,0,1,0,0,0,0,2,12,0,Replay
80,0,0,0,0,0,0,68.0,16,57,-3,15,85,26,60,1,0,1,0,0,0,0,2,12,0,Replay
80,0,0,0,0,0,0,68.0,16,57,-3,15,85,26,60,1,0,1,0,0,0,0,2,12,0,Replay
80,0,0,0,0,0,0,68.0,16,57,-3,15,85,26,60,1,0,1,0,0,0,0,2,12,0,Replay
80,0,0,0,0,0,0,68.0,16,57,-3,15,85,26,60,1,0,1,0,0,0,0,2,12,0,Replay
80,0,0,0,0,0,0,68.0,16,57,-3,15,85,26,60,1,0,1,0,0,0,0,2,12,0,Replay
80,0,0,0,0,0,0,68.0,16,57,-3,15,85,26,60,1,0,1,0,0,0,0,2,12,0,Replay
80,0,0,0,0,0,0,68.0,16,57,-3,15,85,26,60,1,0,1,0,0,0,0,2,12,0,Replay
80,0,0,0,0,0,0,69.0,16,57,-3,15,86,26,162,1,2,1,2,0,0,0,2,12,0,Replay
80,0,0,0,0,0,0,69.0,16,57,-3,15,86,228,44,0,1,0,1,0,0,181,2,8,166,Replay
80,0,0,0,0,0,0,69.0,16,57,-3,15,86,26,162,1,2,1,2,0,0,0,2,12,0,Replay
80,0,0,0,0,0,0,69.0,16,57,-3,15,86,228,44,0,1,0,1,0,0,182,2,8,166,Replay
80,0,0,0,0,0,0,69.0,16,57,-3,15,86,26,162,1,2,1,2,0,0,0,2,12,0,Replay
80,0,0,0,0,0,0,69.0,16,57,-3,15,86,26,162,1,2,1,2,0,0,0,2,12,0,Replay
80,0,0,0,0,0,0,69.0,16,57,-3,15,86,26,162,1,2,1,2,0,0,0,2,12,0,Replay
80,0,0,0,0,0,0,69.0,16,57,-3,15,86,26,162,1,2,1,2,0,0,0,2,12,0,Replay
80,0,0,0,0,0,0,69.0,16,57,-3,15,86,26,162,1,2,1,2,0,0,0,2,12,0,Replay
80,0,0,0,0,0,0,69.0,16,57,-3,15,86,26,162,1,2,1,2,0,0,0,2,12,0,Replay
80,0,0,0,0,0,0,69.0,16,57,-3,15,86,26,162,1,2,1,2,0,0,0,2,12,0,Replay
80,0,0,0,0,0,0,69.0,16,57,-3,15,86,26,162,1,2,1,2,0,0,0,2,12,0,Replay
80,0,0,0,0,0,0,69.0,17,57,0,17,86,26,162,1,2,1,2,0,0,0,2,12,0,Replay
80,0,0,0,0,0,0,69.0,17,57,0,17,86,26,162,1,2,1,2,0,0,0,2,12,0,Replay
80,0,0,0,0,0,0,69.0,17,57,0,17,86,26,162,1,2,1,2,0,0,0,2,12,0,Replay
80,0,0,0,0,0,0,69.0,17,57,0,17,86,26,162,1,2,1,2,0,0,0,2,12,0,Replay
80,0,0,0,0,0,0,69.0,17,57,0,17,86,26,162,1,2,1,2,0,0,0,2,12,0,Replay
80,0,0,0,0,0,0,69.0,17,57,0,17,86,232,44,0,1,0,1,0,0,222,2,8,170,Replay
80,0,0,0,0,0,0,69.0,17,57,0,17,86,26,162,1,2,1,2,0,0,0,2,12,0,Replay
80,0,0,0,0,0,0,69.0,17,57,0,17,86,26,60,1,0,1,0,0,0,0,2,12,0,Replay
80,0,0,0,0,0,0,69.0,17,57,0,17,86,26,162,1,2,1,2,0,0,0,2,12,0,Replay
80,0,0,0,0,0,0,69.0,17,57,0,17,86,26,162,1,2,1,2,0,0,0,2,12,0,Replay
80,0,0,0,0,0,0,69.0,17,57,0,17,86,26,60,1,0,1,0,0,0,0,2,12,0,Replay
80,0,0,0,0,0,0,69.0,17,57,0,17,86,26,162,1,2,1,2,0,0,0,2,12,0,Replay
80,2,0,0,-8,0,0,69.0,17,57,-3,24,85,232,44,0,1,0,1,0,0,224,2,8,170,Replay
80,2,0,0,-8,0,0,69.0,17,57,-3,24,85,26,162,1,2,1,2,0,0,0,2,12,0,Replay
80,2,0,0,-8,0,0,69.0,17,57,-3,24,85,26,162,1,2,1,2,0,0,0,2,12,0,Replay
80,2,0,0,-8,0,0,69.0,17,57,-3,24,85,26,162,1,2,1,2,0,0,0,2,12,0,Replay
80,2,0,0,-8,0,0,69.0,17,57,-3,24,85,26,162,1,2,1,2,0,0,0,2,12,0,Replay
80,2,0,0,-8,0,0,69.0,17,57,-3,24,85,26,162,1,2,1,2,0,0,0,2,12,0,Replay
80,2,0,0,-8,0,0,69.0,17,57,-3,24,85,26,162,1,2,1,2,0,0,0,2,12,0,Replay
80,2,0,0,-8,0,0,69.0,17,57,-3,24,85,26,162,1,2,1,2,0,0,0,2,12,0,Replay
80,2,0,0,-8,0,0,69.0,17,57,-3,24,85,26,162,1,2,1,2,0,0,0,2,12,0,Replay
80,2,0,0,-8,0,0,69.0,17,57,-3,24,85,26,162,1,2,1,2,0,0,0,2,12,0,Replay
80,2,0,0,-8,0,0,69.0,17,57,-3,24,85,26,162,1,2,1,2,0,0,0,2,12,0,Replay
80,2,0,0,-8,0,0,69.0,17,57,-3,24,85,26,162,1,2,1,2,0,0,0,2,12,0,Replay
80,3,0,0,0,-1,0,69.0,18,57,-16,20,89,227,44,0,1,0,1,0,0,267,2,8,165,Replay
80,3,0,0,0,-1,0,69.0,18,57,-16,20,89,26,162,1,2,1,2,0,0,0,2,12,0,Replay
80,3,0,0,0,-1,0,69.0,18,57,-16,20,89,26,60,1,0,1,0,0,0,0,2,12,0,Replay
80,3,0,0,0,-1,0,69.0,18,57,-16,20,89,62,44,1,0,1,0,0,0,162,2,8,0,Replay
80,3,0,0,0,-1,0,69.0,18,57,-16,20,89,62,44,0,1,0,1,0,0,268,2,8,0,Replay
80,3,0,0,0,-1,0,69.0,18,57,-16,20,89,86,44,1,0,1,0,0,0,163,2,8,0,Replay
80,3,0,0,0,-1,0,69.0,18,57,-16,20,89,229,44,0,1,0,1,0,0,269,2,8,167,Replay
80,3,0,0,0,-1,0,69.0,18,57,-16,20,89,26,60,1,0,1,0,0,0,0,2,12,0,Replay
80,3,0,0,0,-1,0,69.0,18,57,-16,20,89,26,162,1,2,1,2,0,0,0,2,12,0,Replay
80,3,0,0,0,-1,0,69.0,18,57,-16,20,89,26,162,1,2,1,2,0,0,0,2,12,0,Replay
80,3,0,0,0,-1,0,69.0,18,57,-16,20,89,26,162,1,2,1,2,0,0,0,2,12,0,Replay
80,3,0,0,0,-1,0,69.0,18,57,-16,20,89,26,162,1,2,1,2,0,0,0,2,12,0,Replay
80,2,0,0,-1,-1,0,69.0,18,57,-36,26,90,26,162,1,2,1,2,0,0,0,2,12,0,Replay
80,2,0,0,-1,-1,0,69.0,18,57,-36,26,90,26,162,1,2,1,2,0,0,0,2,12,0,Replay
80,2,0,0,-1,-1,0,69.0,18,57,-36,26,90,26,162,1,2,1,2,0,0,0,2,12,0,Replay
80,2,0,0,-1,-1,0,69.0,18,57,-36,26,90,26,162,1,2,1,2,0,0,0,2,12,0,Replay
80,2,0,0,-1,-1,0,69.0,18,57,-36,26,90,26,162,1,2,1,2,0,0,0,2,12,0,Replay
80,2,0,0,-1,-1,0,69.0,18,57,-36,26,90,26,162,1,2,1,2,0,0,0,2,12,0,Replay
80,2,0,0,-1,-1,0,69.0,18,57,-36,26,90,26,162,1,2,1,2,0,0,0,2,12,0,Replay
80,2,0,0,-1,-1,0,69.0,18,57,-36,26,90,26,162,1,2,1,2,0,0,0,2,12,0,Replay
80,2,0,0,-1,-1,0,69.0,18,57,-36,26,90,26,162,1,2,1,2,0,0,0,2,12,0,Replay
80,2,0,0,-1,-1,0,69.0,18,57,-36,26,90,26,162,1,2,1,2,0,0,0,2,12,0,Replay
80,2,0,0,-1,-1,0,69.0,18,57,-36,26,90,26,162,1,2,1,2,0,0,0,2,12,0,Replay
80,2,0,0,-1,-1,0,69.0,18,57,-36,26,90,26,162,1,2,1,2,0,0,0,2,12,0,Replay
80,2,0,0,-1,-1,0,69.0,19,57,36,19,87,26,162,1,2,1,2,0,0,0,2,12,0,Replay
80,2,0,0,-1,-1,0,69.0,19,57,36,19,87,26,162,1,2,1,2,0,0,0,2,12,0,Replay
80,2,0,0,-1,-1,0,69.0,19,57,36,19,87,26,162,1,2,1,2,0,0,0,2,12,0,Replay
80,2,0,0,-1,-1,0,69.0,19,57,36,19,87,26,162,1,2,1,2,0,0,0,2,12,0,Replay
80,2,0,0,-1,-1,0,69.0,19,57,36,19,87,75,44,0,1,0,1,0,0,310,2,8,13,Replay
80,2,0,0,-1,-1,0,69.0,19,57,36,19,87,75,44,0,1,0,1,0,0,310,2,8,13,Replay
80,2,0,0,-1,-1,0,69.0,19,57,36,19,87,75,44,0,1,0,1,0,0,310,2,8,13,Replay
80,2,0,0,-1,-1,0,69.0,19,57,36,19,87,26,60,1,0,1,0,0,0,0,2,12,0,Replay
80,2,0,0,-1,-1,0,69.0,19,57,36,19,87,26,162,1,2,1,2,0,0,0,2,12,0,Replay
80,2,0,0,-1,-1,0,69.0,19,57,36,19,87,230,44,0,1,0,1,0,0,311,2,8,168,Replay
80,2,0,0,-1,-1,0,69.0,19,57,36,19,87,64,44,0,1,0,1,0,0,312,2,8,2,Replay
80,2,0,0,-1,-1,0,69.0,19,57,36,19,87,64,44,0,1,0,1,0,0,312,2,8,2,Replay
80,2,0,0,0,-1,0,68.0,19,57,26,22,83,26,162,1,2,1,2,0,0,0,2,12,0,Replay
80,2,0,0,0,-1,0,68.0,19,57,26,22,83,26,162,1,2,1,2,0,0,0,2,12,0,Replay
80,2,0,0,0,-1,0,68.0,19,57,26,22,83,231,44,0,1,0,1,0,0,313,2,8,169,Replay
80,2,0,0,0,-1,0,68.0,19,57,26,22,83,26,162,1,2,1,2,0,0,0,2,12,0,Replay
80,2,0,0,0,-1,0,68.0,19,57,26,22,83,26,162,1,2,1,2,0,0,0,2,12,0,Replay
80,2,0,0,0,-1,0,68.0,19,57,26,22,83,26,162,1,2,1,2,0,0,0,2,12,0,Replay
80,2,0,0,0,-1,0,68.0,19,57,26,22,83,26,162,1,2,1,2,0,0,0,2,12,0,Replay
80,2,0,0,0,-1,0,68.0,19,57,26,22,83,26,162,1,2,1,2,0,0,0,2,12,0,Replay
80,2,0,0,0,-1,0,68.0,19,57,26,22,83,26,162,1,2,1,2,0,0,0,2,12,0,Replay
80,2,0,0,0,-1,0,68.0,19,57,26,22,83,26,162,1,2,1,2,0,0,0,2,12,0,Replay
80,2,0,0,0,-1,0,68.0,19,57,26,22,83,26,162,1,2,1,2,0,0,0,2,12,0,Replay
80,2,0,0,0,-1,0,68.0,19,57,26,22,83,26,162,1,2,1,2,0,0,0,2,12,0,Replay
80,1,-1,0,0,-2,0,68.0,20,57,12,21,82,26,162,1,2,1,2,0,0,0,2,12,0,Replay
80,1,-1,0,0,-2,0,68.0,20,57,12,21,82,26,162,1,2,1,2,0,0,0,2,12,0,Replay
80,1,-1,0,0,-2,0,68.0,20,57,12,21,82,26,162,1,2,1,2,0,0,0,2,12,0,Replay
80,1,-1,0,0,-2,0,68.0,20,57,12,21,82,26,162,1,2,1,2,0,0,0,2,12,0,Replay
80,1,-1,0,0,-2,0,68.0,20,57,12,21,82,86,44,1,0,1,0,0,0,191,2,8,0,Replay
80,1,-1,0,0,-2,0,68.0,20,57,12,21,82,26,162,1,2,1,2,0,0,0,2,12,0,Replay
80,1,-1,0,0,-2,0,68.0,20,57,12,21,82,26,60,1,0,1,0,0,0,0,2,12,0,Replay
80,1,-1,0,0,-2,0,68.0,20,57,12,21,82,26,162,1,2,1,2,0,0,0,2,12,0,Replay
80,1,-1,0,0,-2,0,68.0,20,57,12,21,82,234,44,0,1,0,1,0,0,356,2,8,172,Replay
80,1,-1,0,0,-2,0,68.0,20,57,12,21,82,234,44,0,1,0,1,0,0,356,2,8,172,Replay
80,1,-1,0,0,-2,0,68.0,20,57,12,21,82,86,44,1,0,1,0,0,0,192,2,8,0,Replay
80,1,-1,0,0,-2,0,68.0,20,57,12,21,82,26,162,1,2,1,2,0,0,0,2,12,0,Replay
70,0,0,0,0,0,0,69.0,20,57,5,14,83,26,162,1,2,1,2,0,0,0,2,12,0,Replay
70,0,0,0,0,0,0,69.0,20,57,5,14,83,26,60,1,0,1,0,0,0,0,2,12,0,Replay
70,0,0,0,0,0,0,69.0,20,57,5,14,83,26,162,1,2,1,2,0,0,0,2,12,0,Replay
70,0,0,0,0,0,0,69.0,20,57,5,14,83,231,44,0,1,0,1,0,0,357,2,8,169,Replay
70,0,0,0,0,0,0,69.0,20,57,5,14,83,231,44,0,1,0,1,0,0,358,2,8,169,Replay
70,0,0,0,0,0,0,69.0,20,57,5,14,83,26,60,1,0,1,0,0,0,0,2,12,0,Replay
70,0,0,0,0,0,0,69.0,20,57,5,14,83,26,162,1,2,1,2,0,0,0,2,12,0,Replay
70,0,0,0,0,0,0,69.0,20,57,5,14,83,26,162,1,2,1,2,0,0,0,2,12,0,Replay
70,0,0,0,0,0,0,69.0,20,57,5,14,83,26,162,1,2,1,2,0,0,0,2,12,0,Replay
70,0,0,0,0,0,0,69.0,20,57,5,14,83,26,162,1,2,1,2,0,0,0,2,12,0,Replay
70,0,0,0,0,0,0,69.0,20,57,5,14,83,231,320,0,1,0,1,0,0,371,2,8,169,Replay
70,0,0,0,0,0,0,69.0,20,57,5,14,83,231,320,0,1,0,1,0,0,371,2,8,169,Replay
70,0,0,0,0,-2,0,69.0,21,57,3,16,82,231,320,0,1,0,1,0,0,371,2,8,169,Replay
70,0,0,0,0,-2,0,69.0,21,57,3,16,82,26,162,1,2,1,2,0,0,0,2,12,0,Replay
70,0,0,0,0,-2,0,69.0,21,57,3,16,82,26,162,1,2,1,2,0,0,0,2,12,0,Replay
70,0,0,0,0,-2,0,69.0,21,57,3,16,82,26,162,1,2,1,2,0,0,0,2,12,0,Replay
70,0,0,0,0,-2,0,69.0,21,57,3,16,82,26,162,1,2,1,2,0,0,0,2,12,0,Replay
70,0,0,0,0,-2,0,69.0,21,57,3,16,82,26,162,1,2,1,2,0,0,0,2,12,0,Replay
70,0,0,0,0,-2,0,69.0,21,57,3,16,82,26,162,1,2,1,2,0,0,0,2,12,0,Replay
70,0,0,0,0,-2,0,69.0,21,57,3,16,82,26,162,1,2,1,2,0,0,0,2,12,0,Replay
70,0,0,0,0,-2,0,69.0,21,57,3,16,82,26,162,1,2,1,2,0,0,0,2,12,0,Replay
70,0,0,0,0,-2,0,69.0,21,57,3,16,82,229,320,0,1,0,1,0,0,394,2,8,167,Replay
70,0,0,0,0,-2,0,69.0,21,57,3,16,82,228,44,0,1,0,1,0,0,400,2,8,166,Replay
70,0,0,0,0,-2,0,69.0,21,57,3,16,82,26,162,1,2,1,2,0,0,0,2,12,0,Replay
70,0,-1,0,0,-1,0,69.0,22,57,4,16,82,26,60,1,0,1,0,0,0,0,2,12,0,Replay
70,0,-1,0,0,-1,0,69.0,22,57,4,16,82,26,162,1,2,1,2,0,0,0,2,12,0,Replay
70,0,-1,0,0,-1,0,69.0,22,57,4,16,82,230,44,0,1,0,1,0,0,401,2,8,168,Replay
70,0,-1,0,0,-1,0,69.0,22,57,4,16,82,26,162,1,2,1,2,0,0,0,2,12,0,Replay
70,0,-1,0,0,-1,0,69.0,22,57,4,16,82,26,60,1,0,1,0,0,0,0,2,12,0,Replay
70,0,-1,0,0,-1,0,69.0,22,57,4,16,82,26,162,1,2,1,2,0,0,0,2,12,0,Replay
70,0,-1,0,0,-1,0,69.0,22,57,4,16,82,228,44,0,1,0,1,0,0,402,2,8,166,Replay
70,0,-1,0,0,-1,0,69.0,22,57,4,16,82,86,44,1,0,1,0,0,0,211,2,8,0,Replay
70,0,-1,0,0,-1,0,69.0,22,57,4,16,82,26,162,1,2,1,2,0,0,0,2,12,0,Replay
70,0,-1,0,0,-1,0,69.0,22,57,4,16,82,26,162,1,2,1,2,0,0,0,2,12,0,Replay
70,0,-1,0,0,-1,0,69.0,22,57,4,16,82,228,320,0,1,0,1,0,0,410,2,8,166,Replay
70,0,-1,0,0,-1,0,69.0,22,57,4,16,82,228,320,0,1,0,1,0,0,410,2,8,166,Replay
70,0,-1,0,0,-1,0,69.0,22,57,5,11,82,26,162,1,2,1,2,0,0,0,2,12,0,Replay
70,0,-1,0,0,-1,0,69.0,22,57,5,11,82,98,320,2,1,2,1,0,0,518,0,5,0,Replay
70,0,-1,0,0,-1,0,69.0,22,57,5,11,82,98,320,2,1,2,1,0,0,518,0,5,0,Replay
70,0,-1,0,0,-1,0,69.0,22,57,5,11,82,98,320,2,1,2,1,0,0,518,0,5,0,Replay
70,0,-1,0,0,-1,0,69.0,22,57,5,11,82,98,320,2,1,2,1,0,0,519,0,5,0,Replay
70,0,-1,0,0,-1,0,69.0,22,57,5,11,82,98,320,2,1,2,1,0,0,520,0,5,0,Replay
70,0,-1,0,0,-1,0,69.0,22,57,5,11,82,98,320,2,1,2,1,0,0,520,0,5,0,Replay
70,0,-1,0,0,-1,0,69.0,22,57,5,11,82,231,320,0,1,0,1,0,0,440,2,8,169,Replay
70,0,-1,0,0,-1,0,69.0,22,57,5,11,82,231,320,0,1,0,1,0,0,440,2,8,169,Replay
70,0,-1,0,0,-1,0,69.0,22,57,5,11,82,231,320,0,1,0,1,0,0,440,2,8,169,Replay
70,0,-1,0,0,-1,0,69.0,22,57,5,11,82,75,44,0,1,0,1,0,0,444,2,8,13,Replay
70,0,-1,0,0,-1,0,69.0,22,57,5,11,82,228,44,0,1,0,1,0,0,445,2,8,166,Replay
70,0,-1,0,0,0,0,68.0,23,57,4,8,81,26,60,1,0,1,0,0,0,0,2,12,0,Replay
70,0,-1,0,0,0,0,68.0,23,57,4,8,81,230,44,0,1,0,1,0,0,446,2,8,168,Replay
70,0,-1,0,0,0,0,68.0,23,57,4,8,81,26,60,1,0,1,0,0,0,0,2,12,0,Replay
70,0,-1,0,0,0,0,68.0,23,57,4,8,81,231,44,0,1,0,1,0,0,447,2,8,169,Replay
70,0,-1,0,0,0,0,68.0,23,57,4,8,81,231,44,0,1,0,1,0,0,447,2,8,169,Replay
70,0,-1,0,0,0,0,68.0,23,57,4,8,81,231,44,0,1,0,1,0,0,447,2,8,169,Replay
70,0,-1,0,0,0,0,68.0,23,57,4,8,81,26,60,1,0,1,0,0,0,0,2,12,0,Replay
70,0,-1,0,0,0,0,68.0,23,57,4,8,81,30,314,1,2,1,2,0,0,222,0,11,0,Replay
70,0,-1,0,0,0,0,68.0,23,57,4,8,81,30,320,2,1,2,1,0,0,561,0,11,0,Replay
70,0,-1,0,0,0,0,68.0,23,57,4,8,81,96,314,1,2,1,2,0,0,223,0,0,0,Replay
70,0,-1,0,0,0,0,68.0,23,57,4,8,81,72,320,2,1,2,1,0,0,562,0,1,0,Replay
70,0,-1,0,0,0,0,68.0,23,57,4,8,81,70,314,1,2,1,2,0,0,2,2,8,8,Replay
70,0,0,0,0,1,0,68.0,23,57,5,4,81,26,162,1,2,1,2,0,0,0,2,12,0,Replay
70,0,0,0,0,1,0,68.0,23,57,5,4,81,26,162,1,2,1,2,0,0,0,2,12,0,Replay
70,0,0,0,0,1,0,68.0,23,57,5,4,81,26,162,1,2,1,2,0,0,0,2,12,0,Replay
70,0,0,0,0,1,0,68.0,23,57,5,4,81,26,60,1,0,1,0,0,0,0,2,12,0,Replay
70,0,0,0,0,1,0,68.0,23,57,5,4,81,26,162,1,2,1,2,0,0,0,2,12,0,Replay
70,0,0,0,0,1,0,68.0,23,57,5,4,81,228,44,0,1,0,1,0,0,488,2,8,166,Replay
70,0,0,0,0,1,0,68.0,23,57,5,4,81,26,60,1,0,1,0,0,0,0,2,12,0,Replay
70,0,0,0,0,1,0,68.0,23,57,5,4,81,26,162,1,2,1,2,0,0,0,2,12,0,Replay
70,0,0,0,0,1,0,68.0,23,57,5,4,81,229,44,0,1,0,1,0,0,489,2,8,167,Replay
70,0,0,0,0,1,0,68.0,23,57,5,4,81,26,162,1,2,1,2,0,0,0,2,12,0,Replay
70,0,0,0,0,1,0,68.0,23,57,5,4,81,98,320,3,1,3,1,0,0,596,0,5,0,Replay
70,0,0,0,0,1,0,68.0,23,57,5,4,81,98,320,3,1,3,1,0,0,596,0,5,0,Replay
70,0,0,0,0,0,0,68.0,24,57,4,6,81,227,320,0,1,0,1,0,0,496,2,8,165,Replay
70,0,0,0,0,0,0,68.0,24,57,4,6,81,26,162,1,2,1,2,0,0,0,2,12,0,Replay
70,0,0,0,0,0,0,68.0,24,57,4,6,81,26,162,1,2,1,2,0,0,0,2,12,0,Replay
70,0,0,0,0,0,0,68.0,24,57,4,6,81,26,162,1,2,1,2,0,0,0,2,12,0,Replay
70,0,0,0,0,0,0,68.0,24,57,4,6,81,26,162,1,2,1,2,0,0,0,2,12,0,Replay
70,0,0,0,0,0,0,68.0,24,57,4,6,81,26,162,1,2,1,2,0,0,0,2,12,0,Replay
70,0,0,0,0,0,0,68.0,24,57,4,6,81,26,162,1,2,1,2,0,0,0,2,12,0,Replay
70,0,0,0,0,0,0,68.0,24,57,4,6,81,26,162,1,2,1,2,0,0,0,2,12,0,Replay
70,0,0,0,0,0,0,68.0,24,57,4,6,81,233,44,0,1,0,1,0,0,531,2,8,171,Replay
70,0,0,0,0,0,0,68.0,24,57,4,6,81,26,60,1,0,1,0,0,0,0,2,12,0,Replay
70,0,0,0,0,0,0,68.0,24,57,4,6,81,26,162,1,2,1,2,0,0,0,2,12,0,Replay
70,0,0,0,0,0,0,68.0,24,57,4,6,81,86,44,1,0,1,0,0,0,251,2,8,0,Replay
70,0,0,0,0,-1,0,68.0,24,57,4,11,81,232,44,0,1,0,1,0,0,532,2,8,170,Replay
70,0,0,0,0,-1,0,68.0,24,57,4,11,81,26,162,1,2,1,2,0,0,0,2,12,0,Replay
70,0,0,0,0,-1,0,68.0,24,57,4,11,81,26,162,1,2,1,2,0,0,0,2,12,0,Replay
70,0,0,0,0,-1,0,68.0,24,57,4,11,81,26,162,1,2,1,2,0,0,0,2,12,0,Replay
70,0,0,0,0,-1,0,68.0,24,57,4,11,81,229,320,0,1,0,1,0,0,547,2,8,167,Replay
70,0,0,0,0,-1,0,68.0,24,57,4,11,81,229,320,0,1,0,1,0,0,547,2,8,167,Replay
70,0,0,0,0,-1,0,68.0,24,57,4,11,81,98,320,2,1,2,1,0,0,650,0,5,0,Replay
70,0,0,0,0,-1,0,68.0,24,57,4,11,81,98,320,2,1,2,1,0,0,650,0,5,0,Replay
70,0,0,0,0,-1,0,68.0,24,57,4,11,81,98,320,2,1,2,1,0,0,650,0,5,0,Replay
70,0,0,0,0,-1,0,68.0,24,57,4,11,81,98,320,2,1,2,1,0,0,651,0,5,0,Replay
70,0,0,0,0,-1,0,68.0,24,57,4,11,81,98,320,2,1,2,1,0,0,654,0,5,0,Replay
70,0,0,0,0,-1,0,68.0,24,57,4,11,81,98,320,2,1,2,1,0,0,654,0,5,0,Replay
70,4,0,0,-3,-1,0,68.0,25,57,3,16,80,98,320,2,1,2,1,0,0,654,0,5,0,Replay
70,4,0,0,-3,-1,0,68.0,25,57,3,16,80,26,162,1,2,1,2,0,0,0,2,12,0,Replay
70,4,0,0,-3,-1,0,68.0,25,57,3,16,80,26,162,1,2,1,2,0,0,0,2,12,0,Replay
70,4,0,0,-3,-1,0,68.0,25,57,3,16,80,26,162,1,2,1,2,0,0,0,2,12,0,Replay
70,4,0,0,-3,-1,0,68.0,25,57,3,16,80,26,162,1,2,1,2,0,0,0,2,12,0,Replay
70,4,0,0,-3,-1,0,68.0,25,57,3,16,80,228,44,0,1,0,1,0,0,574,2,8,166,Replay
70,4,0,0,-3,-1,0,68.0,25,57,3,16,80,75,44,0,1,0,1,0,0,575,2,8,13,Replay
70,4,0,0,-3,-1,0,68.0,25,57,3,16,80,26,60,1,0,1,0,0,0,0,2,12,0,Replay
70,4,0,0,-3,-1,0,68.0,25,57,3,16,80,26,162,1,2,1,2,0,0,0,2,12,0,Replay
70,4,0,0,-3,-1,0,68.0,25,57,3,16,80,26,162,1,2,1,2,0,0,0,2,12,0,Replay
70,4,0,0,-3,-1,0,68.0,25,57,3,16,80,26,162,1,2,1,2,0,0,0,2,12,0,Replay
70,4,0,0,-3,-1,0,68.0,25,57,3,16,80,229,44,0,1,0,1,0,0,576,2,8,167,Replay
70,2,0,0,-1,-1,0,68.0,25,57,-25,25,76,229,44,0,1,0,1,0,0,576,2,8,167,Replay
70,2,0,0,-1,-1,0,68.0,25,57,-25,25,76,74,44,0,1,0,1,0,0,577,2,8,12,Replay
70,2,0,0,-1,-1,0,68.0,25,57,-25,25,76,231,44,0,1,0,1,0,0,578,2,8,169,Replay
70,2,0,0,-1,-1,0,68.0,25,57,-25,25,76,26,60,1,0,1,0,0,0,0,2,12,0,Replay
70,2,0,0,-1,-1,0,68.0,25,57,-25,25,76,26,162,1,2,1,2,0,0,0,2,12,0,Replay
70,2,0,0,-1,-1,0,68.0,25,57,-25,25,76,26,162,1,2,1,2,0,0,0,2,12,0,Replay
70,2,0,0,-1,-1,0,68.0,25,57,-25,25,76,26,162,1,2,1,2,0,0,0,2,12,0,Replay
70,2,0,0,-1,-1,0,68.0,25,57,-25,25,76,26,162,1,2,1,2,0,0,0,2,12,0,Replay
70,2,0,0,-1,-1,0,68.0,25,57,-25,25,76,26,162,1,2,1,2,0,0,0,2,12,0,Replay
70,2,0,0,-1,-1,0,68.0,25,57,-25,25,76,234,320,0,1,0,1,0,0,592,2,8,172,Replay
70,2,0,0,-1,-1,0,68.0,25,57,-25,25,76,234,320,0,1,0,1,0,0,592,2,8,172,Replay
70,2,0,0,-1,-1,0,68.0,25,57,-25,25,76,234,320,0,1,0,1,0,0,592,2,8,172,Replay
70,2,0,0,-1,-1,0,69.0,26,57,-32,27,77,26,162,1,2,1,2,0,0,0,2,12,0,Replay
70,2,0,0,-1,-1,0,69.0,26,57,-32,27,77,234,320,0,1,0,1,0,0,592,2,8,172,Replay
70,2,0,0,-1,-1,0,69.0,26,57,-32,27,77,234,320,0,1,0,1,0,0,592,2,8,172,Replay
70,2,0,0,-1,-1,0,69.0,26,57,-32,27,77,26,162,1,2,1,2,0,0,0,2,12,0,Replay
70,2,0,0,-1,-1,0,69.0,26,57,-32,27,77,26,162,1,2,1,2,0,0,0,2,12,0,Replay
70,2,0,0,-1,-1,0,69.0,26,57,-32,27,77,26,162,1,2,1,2,0,0,0,2,12,0,Replay
70,2,0,0,-1,-1,0,69.0,26,57,-32,27,77,26,162,1,2,1,2,0,0,0,2,12,0,Replay
70,2,0,0,-1,-1,0,69.0,26,57,-32,27,77,237,44,0,1,0,1,0,0,618,2,8,175,Replay
70,2,0,0,-1,-1,0,69.0,26,57,-32,27,77,26,60,1,0,1,0,0,0,0,2,12,0,Replay
70,2,0,0,-1,-1,0,69.0,26,57,-32,27,77,26,162,1,2,1,2,0,0,0,2,12,0,Replay
70,2,0,0,-1,-1,0,69.0,26,57,-32,27,77,236,44,0,1,0,1,0,0,619,2,8,174,Replay
70,2,0,0,-1,-1,0,69.0,26,57,-32,27,77,26,162,1,2,1,2,0,0,0,2,12,0,Replay
70,2,0,0,-1,-1,0,69.0,26,57,-45,55,58,86,44,1,0,1,0,0,0,271,2,8,0,Replay
70,2,0,0,-1,-1,0,69.0,26,57,-45,55,58,237,44,0,1,0,1,0,0,620,2,8,175,Replay
70,2,0,0,-1,-1,0,69.0,26,57,-45,55,58,26,162,1,2,1,2,0,0,0,2,12,0,Replay
70,2,0,0,-1,-1,0,69.0,26,57,-45,55,58,26,162,1,2,1,2,0,0,0,2,12,0,Replay
70,2,0,0,-1,-1,0,69.0,26,57,-45,55,58,26,162,1,2,1,2,0,0,0,2,12,0,Replay
70,2,0,0,-1,-1,0,69.0,26,57,-45,55,58,26,162,1,2,1,2,0,0,0,2,12,0,Replay
70,2,0,0,-1,-1,0,69.0,26,57,-45,55,58,26,162,1,2,1,2,0,0,0,2,12,0,Replay
70,2,0,0,-1,-1,0,69.0,26,57,-45,55,58,26,162,1,2,1,2,0,0,0,2,12,0,Replay
70,2,0,0,-1,-1,0,69.0,26,57,-45,55,58,26,162,1,2,1,2,0,0,0,2,12,0,Replay
70,2,0,0,-1,-1,0,69.0,26,57,-45,55,58,26,60,1,0,1,0,0,0,0,2,12,0,Replay
70,2,0,0,-1,-1,0,69.0,26,57,-45,55,58,26,162,1,2,1,2,0,0,0,2,12,0,Replay
70,2,0,0,-1,-1,0,69.0,26,57,-45,55,58,241,44,0,1,0,1,0,0,667,2,8,179,Replay
70,1,-1,0,0,-1,0,68.0,27,57,-16,-21,80,26,60,1,0,1,0,0,0,0,2,12,0,Replay
70,1,-1,0,0,-1,0,68.0,27,57,-16,-21,80,26,162,1,2,1,2,0,0,0,2,12,0,Replay
70,1,-1,0,0,-1,0,68.0,27,57,-16,-21,80,241,44,0,1,0,1,0,0,668,2,8,179,Replay
70,1,-1,0,0,-1,0,68.0,27,57,-16,-21,80,26,162,1,2,1,2,0,0,0,2,12,0,Replay
70,1,-1,0,0,-1,0,68.0,27,57,-16,-21,80,86,44,1,0,1,0,0,0,285,2,8,0,Replay
70,1,-1,0,0,-1,0,68.0,27,57,-16,-21,80,26,162,1,2,1,2,0,0,0,2,12,0,Replay
70,1,-1,0,0,-1,0,68.0,27,57,-16,-21,80,26,162,1,2,1,2,0,0,0,2,12,0,Replay
70,1,-1,0,0,-1,0,68.0,27,57,-16,-21,80,26,162,1,2,1,2,0,0,0,2,12,0,Replay
70,1,-1,0,0,-1,0,68.0,27,57,-16,-21,80,26,162,1,2,1,2,0,0,0,2,12,0,Replay
70,1,-1,0,0,-1,0,68.0,27,57,-16,-21,80,26,162,1,2,1,2,0,0,0,2,12,0,Replay
70,1,-1,0,0,-1,0,68.0,27,57,-16,-21,80,26,162,1,2,1,2,0,0,0,2,12,0,Replay
70,1,-1,0,0,-1,0,68.0,27,57,-16,-21,80,26,162,1,2,1,2,0,0,0,2,12,0,Replay
70,0,-2,0,1,2,0,68.0,27,57,-7,-15,83,26,162,1,2,1,2,0,0,0,2,12,0,Replay
70,0,-2,0,1,2,0,68.0,27,57,-7,-15,83,26,162,1,2,1,2,0,0,0,2,12,0,Replay
70,0,-2,0,1,2,0,68.0,27,57,-7,-15,83,26,162,1,2,1,2,0,0,0,2,12,0,Replay
70,0,-2,0,1,2,0,68.0,27,57,-7,-15,83,26,162,1,2,1,2,0,0,0,2,12,0,Replay
70,0,-2,0,1,2,0,68.0,27,57,-7,-15,83,26,162,1,2,1,2,0,0,0,2,12,0,Replay
70,0,-2,0,1,2,0,68.0,27,57,-7,-15,83,26,162,1,2,1,2,0,0,0,2,12,0,Replay
70,0,-2,0,1,2,0,68.0,27,57,-7,-15,83,26,162,1,2,1,2,0,0,0,2,12,0,Replay
70,0,-2,0,1,2,0,68.0,27,57,-7,-15,83,26,162,1,2,1,2,0,0,0,2,12,0,Replay
70,0,-2,0,1,2,0,68.0,27,57,-7,-15,83,26,162,1,2,1,2,0,0,0,2,12,0,Replay
70,0,-2,0,1,2,0,68.0,27,57,-7,-15,83,237,44,0,1,0,1,0,0,709,2,8,175,Replay
70,0,-2,0,1,2,0,68.0,27,57,-7,-15,83,26,162,1,2,1,2,0,0,0,2,12,0,Replay
70,0,-2,0,1,2,0,68.0,27,57,-7,-15,83,26,60,1,0,1,0,0,0,0,2,12,0,Replay
80,0,0,0,0,0,0,68.0,28,57,-6,-14,86,26,162,1,2,1,2,0,0,0,2,12,0,Replay
80,0,0,0,0,0,0,68.0,28,57,-6,-14,86,237,44,0,1,0,1,0,0,710,2,8,175,Replay
80,0,0,0,0,0,0,68.0,28,57,-6,-14,86,26,162,1,2,1,2,0,0,0,2,12,0,Replay
80,0,0,0,0,0,0,68.0,28,57,-6,-14,86,26,60,1,0,1,0,0,0,0,2,12,0,Replay
80,0,0,0,0,0,0,68.0,28,57,-6,-14,86,26,162,1,2,1,2,0,0,0,2,12,0,Replay
80,0,0,0,0,0,0,68.0,28,57,-6,-14,86,86,44,1,0,1,0,0,0,293,2,8,0,Replay
80,0,0,0,0,0,0,68.0,28,57,-6,-14,86,237,44,0,1,0,1,0,0,711,2,8,175,Replay
80,0,0,0,0,0,0,68.0,28,57,-6,-14,86,26,60,1,0,1,0,0,0,0,2,12,0,Replay
80,0,0,0,0,0,0,68.0,28,57,-6,-14,86,26,162,1,2,1,2,0,0,0,2,12,0,Replay
80,0,0,0,0,0,0,68.0,28,57,-6,-14,86,26,162,1,2,1,2,0,0,0,2,12,0,Replay
80,0,0,0,0,0,0,68.0,28,57,-6,-14,86,98,320,0,1,0,1,0,0,791,0,5,0,Replay
