p_height,p_x_speed,p_y_speed,p_z_speed,p_pitch,p_roll,p_yaw,p_temperature,p_flight_time,p_battery,p_mp_distance_x,p_mp_distance_y,p_mp_distance_z,frame.len,wlan.duration,wlan.ra,wlan.ta,wlan.da,wlan.sa,wlan.bssid,wlan.frag,wlan.seq,wlan.fc.type,wlan.fc.subtype,data.len,class
60,2,0,0,-2,-1,0,67.0,27,77,-43,25,79,86,44,1,0,1,0,0,0,63,2,8,0,Replay
60,2,0,0,-2,-1,0,67.0,27,77,-43,25,79,26,60,1,0,1,0,0,0,0,2,12,0,Replay
60,2,0,0,-2,-1,0,67.0,27,77,-43,25,79,231,44,0,1,0,1,0,0,582,2,8,169,Replay
60,2,0,0,-2,-1,0,67.0,27,77,-43,25,79,86,44,1,0,1,0,0,0,64,2,8,0,Replay
60,2,0,0,-2,-1,0,67.0,27,77,-43,25,79,26,60,1,0,1,0,0,0,0,2,12,0,Replay
60,2,0,0,-2,-1,0,67.0,27,77,-43,25,79,26,60,1,0,1,0,0,0,0,2,12,0,Replay
60,2,0,0,-2,-1,0,67.0,27,77,-43,25,79,86,44,1,0,1,0,0,0,65,2,8,0,Replay
60,2,0,0,-2,-1,0,67.0,27,77,-43,25,79,86,44,1,0,1,0,0,0,66,2,8,0,Replay
60,2,0,0,-2,-1,0,67.0,27,77,-43,25,79,86,44,1,0,1,0,0,0,67,2,8,0,Replay
60,2,0,0,-2,-1,0,67.0,27,77,-43,25,79,233,44,0,1,0,1,0,0,584,2,8,171,Replay
60,2,0,0,-2,-1,0,67.0,27,77,-43,25,79,86,44,1,0,1,0,0,0,68,2,8,0,Replay
60,2,0,0,-2,-1,0,67.0,27,77,-43,25,79,26,60,1,0,1,0,0,0,0,2,12,0,Replay
60,2,0,0,-2,-1,0,67.0,27,77,-43,25,79,86,44,1,0,1,0,0,0,69,2,8,0,Replay
60,2,0,0,-1,-1,0,67.0,28,77,-43,-9,81,86,44,1,0,1,0,0,0,71,2,8,0,Replay
60,2,0,0,-1,-1,0,67.0,28,77,-43,-9,81,231,44,0,1,0,1,0,0,585,2,8,169,Replay
60,2,0,0,-1,-1,0,67.0,28,77,-43,-9,81,26,60,1,0,1,0,0,0,0,2,12,0,Replay
60,2,0,0,-1,-1,0,67.0,28,77,-43,-9,81,86,44,1,0,1,0,0,0,77,2,8,0,Replay
60,2,0,0,-1,-1,0,67.0,28,77,-43,-9,81,86,44,1,0,1,0,0,0,78,2,8,0,Replay
60,2,0,0,-1,-1,0,67.0,28,77,-43,-9,81,86,44,1,0,1,0,0,0,79,2,8,0,Replay
60,2,0,0,-1,-1,0,67.0,28,77,-43,-9,81,232,44,0,1,0,1,0,0,586,2,8,170,Replay
60,2,0,0,-1,-1,0,67.0,28,77,-43,-9,81,86,44,1,0,1,0,0,0,80,2,8,0,Replay
60,2,0,0,-1,-1,0,67.0,28,77,-43,-9,81,26,60,1,0,1,0,0,0,0,2,12,0,Replay
60,2,0,0,-1,-1,0,67.0,28,77,-43,-9,81,75,44,0,1,0,1,0,0,587,2,8,13,Replay
60,2,0,0,-1,-1,0,67.0,28,77,-43,-9,81,233,44,0,1,0,1,0,0,588,2,8,171,Replay
60,2,0,0,-1,-1,0,67.0,28,77,-43,-9,81,26,314,0,1,0,1,0,0,1346,0,12,0,Replay
60,2,0,0,-1,-1,0,67.0,28,77,-43,-9,81,26,314,1,0,1,0,0,0,1347,0,12,0,Replay
60,1,-1,0,-1,-1,0,67.0,29,77,-33,2,81,26,314,0,1,0,1,0,0,1348,0,12,0,Replay
60,1,-1,0,-1,-1,0,67.0,29,77,-33,2,81,26,314,1,0,1,0,0,0,1349,0,12,0,Replay
60,1,-1,0,-1,-1,0,67.0,29,77,-33,2,81,26,314,0,1,0,1,0,0,1350,0,12,0,Replay
60,1,-1,0,-1,-1,0,67.0,29,77,-33,2,81,26,314,1,0,1,0,0,0,1351,0,12,0,Replay
60,1,-1,0,-1,-1,0,67.0,29,77,-33,2,81,26,314,0,1,0,1,0,0,1352,0,12,0,Replay
60,1,-1,0,-1,-1,0,67.0,29,77,-33,2,81,26,314,1,0,1,0,0,0,1353,0,12,0,Replay
60,1,-1,0,-1,-1,0,67.0,29,77,-33,2,81,26,314,0,1,0,1,0,0,1354,0,12,0,Replay
60,1,-1,0,-1,-1,0,67.0,29,77,-33,2,81,26,314,1,0,1,0,0,0,1355,0,12,0,Replay
60,1,-1,0,-1,-1,0,67.0,29,77,-33,2,81,26,314,0,1,0,1,0,0,1356,0,12,0,Replay
60,1,-1,0,-1,-1,0,67.0,29,77,-33,2,81,26,314,1,0,1,0,0,0,1357,0,12,0,Replay
60,1,-1,0,-1,-1,0,67.0,29,77,-33,2,81,26,314,0,1,0,1,0,0,1358,0,12,0,Replay
60,1,-1,0,-1,-1,0,67.0,29,77,-33,2,81,26,314,1,0,1,0,0,0,1359,0,12,0,Replay
60,1,-1,0,-1,-1,0,67.0,29,77,-33,2,81,26,314,0,1,0,1,0,0,1360,0,12,0,Replay
60,0,0,0,0,0,0,67.0,29,77,-28,4,80,26,314,1,0,1,0,0,0,1361,0,12,0,Replay
60,0,0,0,0,0,0,67.0,29,77,-28,4,80,26,314,0,1,0,1,0,0,1362,0,12,0,Replay
60,0,0,0,0,0,0,67.0,29,77,-28,4,80,26,314,1,0,1,0,0,0,1363,0,12,0,Replay
60,0,0,0,0,0,0,67.0,29,77,-28,4,80,26,314,0,1,0,1,0,0,1364,0,12,0,Replay
60,0,0,0,0,0,0,67.0,29,77,-28,4,80,26,314,1,0,1,0,0,0,1365,0,12,0,Replay
60,0,0,0,0,0,0,67.0,29,77,-28,4,80,26,314,0,1,0,1,0,0,1366,0,12,0,Replay
60,0,0,0,0,0,0,67.0,29,77,-28,4,80,26,314,1,0,1,0,0,0,1367,0,12,0,Replay
60,0,0,0,0,0,0,67.0,29,77,-28,4,80,26,314,0,1,0,1,0,0,1368,0,12,0,Replay
60,0,0,0,0,0,0,67.0,29,77,-28,4,80,26,314,1,0,1,0,0,0,1369,0,12,0,Replay
60,0,0,0,0,0,0,67.0,29,77,-28,4,80,26,314,0,1,0,1,0,0,1370,0,12,0,Replay
60,0,0,0,0,0,0,67.0,29,77,-28,4,80,26,314,1,0,1,0,0,0,1371,0,12,0,Replay
60,0,0,0,0,0,0,67.0,29,77,-28,4,80,26,314,0,1,0,1,0,0,1372,0,12,0,Replay
60,0,0,0,0,0,0,67.0,29,77,-28,4,80,26,314,1,0,1,0,0,0,1373,0,12,0,Replay
60,2,0,0,-2,-1,0,67.0,30,77,-24,1,81,26,314,0,1,0,1,0,0,1374,0,12,0,Replay
60,2,0,0,-2,-1,0,67.0,30,77,-24,1,81,26,314,1,0,1,0,0,0,1375,0,12,0,Replay
60,2,0,0,-2,-1,0,67.0,30,77,-24,1,81,26,314,0,1,0,1,0,0,1376,0,12,0,Replay
60,2,0,0,-2,-1,0,67.0,30,77,-24,1,81,26,314,1,0,1,0,0,0,1377,0,12,0,Replay
60,2,0,0,-2,-1,0,67.0,30,77,-24,1,81,26,314,0,1,0,1,0,0,1378,0,12,0,Replay
60,2,0,0,-2,-1,0,67.0,30,77,-24,1,81,26,314,1,0,1,0,0,0,1379,0,12,0,Replay
60,2,0,0,-2,-1,0,67.0,30,77,-24,1,81,26,314,0,1,0,1,0,0,1380,0,12,0,Replay
60,2,0,0,-2,-1,0,67.0,30,77,-24,1,81,26,314,1,0,1,0,0,0,1381,0,12,0,Replay
60,2,0,0,-2,-1,0,67.0,30,77,-24,1,81,26,314,0,1,0,1,0,0,1382,0,12,0,Replay
60,2,0,0,-2,-1,0,67.0,30,77,-24,1,81,26,314,1,0,1,0,0,0,1383,0,12,0,Replay
60,2,0,0,-2,-1,0,67.0,30,77,-24,1,81,26,314,0,1,0,1,0,0,1384,0,12,0,Replay
60,2,0,0,-2,-1,0,67.0,30,77,-24,1,81,26,314,1,0,1,0,0,0,1385,0,12,0,Replay
60,2,0,0,-2,-1,0,67.0,30,77,-24,1,81,26,314,0,1,0,1,0,0,1386,0,12,0,Replay
60,1,0,0,-1,0,0,67.0,30,77,-12,-1,83,26,314,1,0,1,0,0,0,1387,0,12,0,Replay
60,1,0,0,-1,0,0,67.0,30,77,-12,-1,83,26,314,0,1,0,1,0,0,1388,0,12,0,Replay
60,1,0,0,-1,0,0,67.0,30,77,-12,-1,83,26,314,1,0,1,0,0,0,1389,0,12,0,Replay
60,1,0,0,-1,0,0,67.0,30,77,-12,-1,83,26,314,0,1,0,1,0,0,1390,0,12,0,Replay
60,1,0,0,-1,0,0,67.0,30,77,-12,-1,83,26,314,1,0,1,0,0,0,1391,0,12,0,Replay
60,1,0,0,-1,0,0,67.0,30,77,-12,-1,83,26,314,1,0,1,0,0,0,1393,0,12,0,Replay
60,1,0,0,-1,0,0,67.0,30,77,-12,-1,83,26,314,0,1,0,1,0,0,1394,0,12,0,Replay
60,1,0,0,-1,0,0,67.0,30,77,-12,-1,83,26,314,1,0,1,0,0,0,1395,0,12,0,Replay
60,1,0,0,-1,0,0,67.0,30,77,-12,-1,83,26,314,0,1,0,1,0,0,1396,0,12,0,Replay
60,1,0,0,-1,0,0,67.0,30,77,-12,-1,83,26,314,1,0,1,0,0,0,1397,0,12,0,Replay
60,1,0,0,-1,0,0,67.0,30,77,-12,-1,83,26,314,0,1,0,1,0,0,1398,0,12,0,Replay
60,1,0,0,-1,0,0,67.0,30,77,-12,-1,83,26,314,1,0,1,0,0,0,1399,0,12,0,Replay
60,1,0,0,-1,0,0,67.0,30,77,-12,-1,83,26,314,0,1,0,1,0,0,1400,0,12,0,Replay
60,1,0,0,0,0,0,67.0,31,77,-6,-3,82,26,314,1,0,1,0,0,0,1401,0,12,0,Replay
60,1,0,0,0,0,0,67.0,31,77,-6,-3,82,26,314,0,1,0,1,0,0,1402,0,12,0,Replay
60,1,0,0,0,0,0,67.0,31,77,-6,-3,82,26,314,1,0,1,0,0,0,1403,0,12,0,Replay
60,1,0,0,0,0,0,67.0,31,77,-6,-3,82,26,314,0,1,0,1,0,0,1404,0,12,0,Replay
60,1,0,0,0,0,0,67.0,31,77,-6,-3,82,26,314,1,0,1,0,0,0,1405,0,12,0,Replay
60,1,0,0,0,0,0,67.0,31,77,-6,-3,82,26,314,0,1,0,1,0,0,1406,0,12,0,Replay
60,1,0,0,0,0,0,67.0,31,77,-6,-3,82,26,314,1,0,1,0,0,0,1407,0,12,0,Replay
60,1,0,0,0,0,0,67.0,31,77,-6,-3,82,26,314,0,1,0,1,0,0,1420,0,12,0,Replay
60,1,0,0,0,0,0,67.0,31,77,-6,-3,82,26,314,0,1,0,1,0,0,1536,0,12,0,Replay
60,1,0,0,0,0,0,67.0,31,77,-6,-3,82,26,314,1,0,1,0,0,0,1537,0,12,0,Replay
60,1,0,0,0,0,0,67.0,31,77,-6,-3,82,26,314,0,1,0,1,0,0,1538,0,12,0,Replay
60,1,0,0,0,0,0,67.0,31,77,-6,-3,82,26,314,1,0,1,0,0,0,1539,0,12,0,Replay
60,1,0,0,0,0,0,67.0,31,77,-6,-3,82,26,314,0,1,0,1,0,0,1540,0,12,0,Replay
60,0,0,0,0,0,0,67.0,31,77,-2,-7,81,26,314,1,0,1,0,0,0,1541,0,12,0,Replay
60,0,0,0,0,0,0,67.0,31,77,-2,-7,81,26,314,0,1,0,1,0,0,1542,0,12,0,Replay
60,0,0,0,0,0,0,67.0,31,77,-2,-7,81,26,314,1,0,1,0,0,0,1543,0,12,0,Replay
60,0,0,0,0,0,0,67.0,31,77,-2,-7,81,26,314,0,1,0,1,0,0,1544,0,12,0,Replay
60,0,0,0,0,0,0,67.0,31,77,-2,-7,81,26,314,1,0,1,0,0,0,1545,0,12,0,Replay
60,0,0,0,0,0,0,67.0,31,77,-2,-7,81,26,314,0,1,0,1,0,0,1546,0,12,0,Replay
60,0,0,0,0,0,0,67.0,31,77,-2,-7,81,26,314,1,0,1,0,0,0,1547,0,12,0,Replay
60,0,0,0,0,0,0,67.0,31,77,-2,-7,81,26,314,1,0,1,0,0,0,1549,0,12,0,Replay
60,0,0,0,0,0,0,67.0,31,77,-2,-7,81,26,314,0,1,0,1,0,0,1550,0,12,0,Replay
60,0,0,0,0,0,0,67.0,31,77,-2,-7,81,26,314,1,0,1,0,0,0,1551,0,12,0,Replay
60,0,0,0,0,0,0,67.0,31,77,-2,-7,81,26,314,0,1,0,1,0,0,1552,0,12,0,Replay
60,0,0,0,0,0,0,67.0,31,77,-2,-7,81,26,314,1,0,1,0,0,0,1553,0,12,0,Replay
60,0,0,0,0,0,0,67.0,31,77,-2,-7,81,26,314,0,1,0,1,0,0,1554,0,12,0,Replay
60,0,0,0,-1,0,0,67.0,32,77,-3,-8,81,26,314,1,0,1,0,0,0,1555,0,12,0,Replay
60,0,0,0,-1,0,0,67.0,32,77,-3,-8,81,26,314,0,1,0,1,0,0,1556,0,12,0,Replay
60,0,0,0,-1,0,0,67.0,32,77,-3,-8,81,26,314,0,1,0,1,0,0,1558,0,12,0,Replay
60,0,0,0,-1,0,0,67.0,32,77,-3,-8,81,26,314,1,0,1,0,0,0,1559,0,12,0,Replay
60,0,0,0,-1,0,0,67.0,32,77,-3,-8,81,26,314,0,1,0,1,0,0,1560,0,12,0,Replay
60,0,0,0,-1,0,0,67.0,32,77,-3,-8,81,26,314,1,0,1,0,0,0,1561,0,12,0,Replay
60,0,0,0,-1,0,0,67.0,32,77,-3,-8,81,26,314,0,1,0,1,0,0,1562,0,12,0,Replay
60,0,0,0,-1,0,0,67.0,32,77,-3,-8,81,26,314,1,0,1,0,0,0,1563,0,12,0,Replay
60,0,0,0,-1,0,0,67.0,32,77,-3,-8,81,26,314,0,1,0,1,0,0,1564,0,12,0,Replay
60,0,0,0,-1,0,0,67.0,32,77,-3,-8,81,26,314,1,0,1,0,0,0,1565,0,12,0,Replay
60,0,0,0,-1,0,0,67.0,32,77,-3,-8,81,26,314,0,1,0,1,0,0,1566,0,12,0,Replay
60,0,0,0,-1,0,0,67.0,32,77,-3,-8,81,26,314,1,0,1,0,0,0,1567,0,12,0,Replay
60,0,0,0,-1,0,0,67.0,32,77,-3,-8,81,26,314,0,1,0,1,0,0,1568,0,12,0,Replay
60,0,0,0,-1,0,0,67.0,32,77,-4,-12,81,26,314,1,0,1,0,0,0,1569,0,12,0,Replay
60,0,0,0,-1,0,0,67.0,32,77,-4,-12,81,26,314,0,1,0,1,0,0,1570,0,12,0,Replay
60,0,0,0,-1,0,0,67.0,32,77,-4,-12,81,26,314,1,0,1,0,0,0,1571,0,12,0,Replay
60,0,0,0,-1,0,0,67.0,32,77,-4,-12,81,26,314,0,1,0,1,0,0,1572,0,12,0,Replay
60,0,0,0,-1,0,0,67.0,32,77,-4,-12,81,26,314,1,0,1,0,0,0,1573,0,12,0,Replay
60,0,0,0,-1,0,0,67.0,32,77,-4,-12,81,26,314,0,1,0,1,0,0,1574,0,12,0,Replay
60,0,0,0,-1,0,0,67.0,32,77,-4,-12,81,26,314,1,0,1,0,0,0,1575,0,12,0,Replay
60,0,0,0,-1,0,0,67.0,32,77,-4,-12,81,86,44,1,0,1,0,0,0,51,2,8,0,Replay
60,0,0,0,-1,0,0,67.0,32,77,-4,-12,81,64,44,0,1,0,1,0,0,616,2,8,2,Replay
60,0,0,0,-1,0,0,67.0,32,77,-4,-12,81,26,60,1,0,1,0,0,0,0,2,12,0,Replay
60,0,0,0,-1,0,0,67.0,32,77,-4,-12,81,86,44,1,0,1,0,0,0,52,2,8,0,Replay
60,0,0,0,-1,0,0,67.0,32,77,-4,-12,81,86,44,1,0,1,0,0,0,53,2,8,0,Replay
60,0,0,0,-1,0,0,67.0,32,77,-4,-12,81,86,44,1,0,1,0,0,0,54,2,8,0,Replay
60,4,0,0,-4,0,0,67.0,33,77,-1,-17,82,86,44,1,0,1,0,0,0,54,2,8,0,Replay
60,4,0,0,-4,0,0,67.0,33,77,-1,-17,82,86,44,1,0,1,0,0,0,54,2,8,0,Replay
60,4,0,0,-4,0,0,67.0,33,77,-1,-17,82,86,44,1,0,1,0,0,0,54,2,8,0,Replay
60,4,0,0,-4,0,0,67.0,33,77,-1,-17,82,86,48,1,0,1,0,0,0,54,2,8,0,Replay
60,4,0,0,-4,0,0,67.0,33,77,-1,-17,82,229,44,0,1,0,1,0,0,617,2,8,167,Replay
60,4,0,0,-4,0,0,67.0,33,77,-1,-17,82,26,60,1,0,1,0,0,0,0,2,12,0,Replay
60,4,0,0,-4,0,0,67.0,33,77,-1,-17,82,86,44,1,0,1,0,0,0,55,2,8,0,Replay
60,4,0,0,-4,0,0,67.0,33,77,-1,-17,82,229,44,0,1,0,1,0,0,618,2,8,167,Replay
60,4,0,0,-4,0,0,67.0,33,77,-1,-17,82,86,44,1,0,1,0,0,0,57,2,8,0,Replay
60,4,0,0,-4,0,0,67.0,33,77,-1,-17,82,86,44,1,0,1,0,0,0,59,2,8,0,Replay
60,4,0,0,-4,0,0,67.0,33,77,-1,-17,82,26,60,1,0,1,0,0,0,0,2,12,0,Replay
60,4,0,0,-4,0,0,67.0,33,77,-1,-17,82,86,44,1,0,1,0,0,0,60,2,8,0,Replay
60,4,0,0,-4,0,0,67.0,33,77,-1,-17,82,228,44,0,1,0,1,0,0,619,2,8,166,Replay
70,2,0,0,-1,0,0,67.0,33,77,14,-20,83,86,44,1,0,1,0,0,0,61,2,8,0,Replay
70,2,0,0,-1,0,0,67.0,33,77,14,-20,83,86,44,1,0,1,0,0,0,62,2,8,0,Replay
70,2,0,0,-1,0,0,67.0,33,77,14,-20,83,26,60,1,0,1,0,0,0,0,2,12,0,Replay
70,2,0,0,-1,0,0,67.0,33,77,14,-20,83,86,44,1,0,1,0,0,0,63,2,8,0,Replay
70,2,0,0,-1,0,0,67.0,33,77,14,-20,83,229,44,0,1,0,1,0,0,620,2,8,167,Replay
70,2,0,0,-1,0,0,67.0,33,77,14,-20,83,86,44,1,0,1,0,0,0,64,2,8,0,Replay
70,2,0,0,-1,0,0,67.0,33,77,14,-20,83,86,44,1,0,1,0,0,0,65,2,8,0,Replay
70,2,0,0,-1,0,0,67.0,33,77,14,-20,83,86,44,1,0,1,0,0,0,66,2,8,0,Replay
70,2,0,0,-1,0,0,67.0,33,77,14,-20,83,26,60,1,0,1,0,0,0,0,2,12,0,Replay
70,2,0,0,-1,0,0,67.0,33,77,14,-20,83,227,44,0,1,0,1,0,0,621,2,8,165,Replay
70,2,0,0,-1,0,0,67.0,33,77,14,-20,83,26,314,0,1,0,1,0,0,2176,0,12,0,Replay
70,2,0,0,-1,0,0,67.0,33,77,14,-20,83,26,314,1,0,1,0,0,0,2177,0,12,0,Replay
70,2,0,0,-1,0,0,67.0,33,77,14,-20,83,26,314,0,1,0,1,0,0,2178,0,12,0,Replay
70,2,0,0,-1,0,0,67.0,34,77,26,-25,83,26,314,1,0,1,0,0,0,2179,0,12,0,Replay
70,2,0,0,-1,0,0,67.0,34,77,26,-25,83,26,314,1,0,1,0,0,0,2181,0,12,0,Replay
70,2,0,0,-1,0,0,67.0,34,77,26,-25,83,26,314,0,1,0,1,0,0,2182,0,12,0,Replay
70,2,0,0,-1,0,0,67.0,34,77,26,-25,83,26,314,1,0,1,0,0,0,2183,0,12,0,Replay
70,2,0,0,-1,0,0,67.0,34,77,26,-25,83,26,314,0,1,0,1,0,0,2184,0,12,0,Replay
70,2,0,0,-1,0,0,67.0,34,77,26,-25,83,26,314,1,0,1,0,0,0,2185,0,12,0,Replay
70,2,0,0,-1,0,0,67.0,34,77,26,-25,83,26,314,0,1,0,1,0,0,2186,0,12,0,Replay
70,2,0,0,-1,0,0,67.0,34,77,26,-25,83,26,314,1,0,1,0,0,0,2187,0,12,0,Replay
70,2,0,0,-1,0,0,67.0,34,77,26,-25,83,26,314,0,1,0,1,0,0,2188,0,12,0,Replay
70,2,0,0,-1,0,0,67.0,34,77,26,-25,83,26,314,1,0,1,0,0,0,2189,0,12,0,Replay
70,2,0,0,-1,0,0,67.0,34,77,26,-25,83,26,314,0,1,0,1,0,0,2190,0,12,0,Replay
70,2,0,0,-1,0,0,67.0,34,77,26,-25,83,26,314,1,0,1,0,0,0,2191,0,12,0,Replay
70,2,0,0,-1,0,0,67.0,34,77,26,-25,83,26,314,0,1,0,1,0,0,2192,0,12,0,Replay
60,2,0,0,-2,-1,0,67.0,34,77,30,-28,83,26,314,1,0,1,0,0,0,2193,0,12,0,Replay
60,2,0,0,-2,-1,0,67.0,34,77,30,-28,83,26,314,0,1,0,1,0,0,2194,0,12,0,Replay
60,2,0,0,-2,-1,0,67.0,34,77,30,-28,83,26,314,1,0,1,0,0,0,2195,0,12,0,Replay
60,2,0,0,-2,-1,0,67.0,34,77,30,-28,83,26,314,0,1,0,1,0,0,2196,0,12,0,Replay
60,2,0,0,-2,-1,0,67.0,34,77,30,-28,83,26,314,1,0,1,0,0,0,2197,0,12,0,Replay
60,2,0,0,-2,-1,0,67.0,34,77,30,-28,83,26,314,0,1,0,1,0,0,2198,0,12,0,Replay
60,2,0,0,-2,-1,0,67.0,34,77,30,-28,83,26,314,1,0,1,0,0,0,2199,0,12,0,Replay
60,2,0,0,-2,-1,0,67.0,34,77,30,-28,83,26,314,0,1,0,1,0,0,2200,0,12,0,Replay
60,2,0,0,-2,-1,0,67.0,34,77,30,-28,83,26,314,1,0,1,0,0,0,2201,0,12,0,Replay
60,2,0,0,-2,-1,0,67.0,34,77,30,-28,83,26,314,0,1,0,1,0,0,2202,0,12,0,Replay
60,2,0,0,-2,-1,0,67.0,34,77,30,-28,83,26,314,1,0,1,0,0,0,2203,0,12,0,Replay
60,2,0,0,-2,-1,0,67.0,34,77,30,-28,83,26,314,0,1,0,1,0,0,2204,0,12,0,Replay
60,2,0,0,-2,-1,0,67.0,34,77,30,-28,83,26,314,1,0,1,0,0,0,2205,0,12,0,Replay
60,2,0,0,-2,0,0,67.0,35,77,-8,-46,88,26,314,0,1,0,1,0,0,2206,0,12,0,Replay
60,2,0,0,-2,0,0,67.0,35,77,-8,-46,88,26,314,1,0,1,0,0,0,2207,0,12,0,Replay
60,2,0,0,-2,0,0,67.0,35,77,-8,-46,88,26,314,0,1,0,1,0,0,2208,0,12,0,Replay
60,2,0,0,-2,0,0,67.0,35,77,-8,-46,88,26,314,1,0,1,0,0,0,2209,0,12,0,Replay
60,2,0,0,-2,0,0,67.0,35,77,-8,-46,88,26,314,0,1,0,1,0,0,2210,0,12,0,Replay
60,2,0,0,-2,0,0,67.0,35,77,-8,-46,88,26,314,1,0,1,0,0,0,2211,0,12,0,Replay
60,2,0,0,-2,0,0,67.0,35,77,-8,-46,88,26,314,0,1,0,1,0,0,2212,0,12,0,Replay
60,2,0,0,-2,0,0,67.0,35,77,-8,-46,88,26,314,1,0,1,0,0,0,2213,0,12,0,Replay
60,2,0,0,-2,0,0,67.0,35,77,-8,-46,88,26,314,0,1,0,1,0,0,2214,0,12,0,Replay
60,2,0,0,-2,0,0,67.0,35,77,-8,-46,88,26,314,1,0,1,0,0,0,2215,0,12,0,Replay
60,2,0,0,-2,0,0,67.0,35,77,-8,-46,88,26,314,0,1,0,1,0,0,2216,0,12,0,Replay
60,2,0,0,-2,0,0,67.0,35,77,-8,-46,88,26,314,1,0,1,0,0,0,2217,0,12,0,Replay
60,2,0,0,-2,0,0,67.0,35,77,-8,-46,88,26,314,0,1,0,1,0,0,2218,0,12,0,Replay
70,2,0,0,-1,-1,0,66.0,35,77,-46,-1,82,26,314,1,0,1,0,0,0,2219,0,12,0,Replay
70,2,0,0,-1,-1,0,66.0,35,77,-46,-1,82,26,314,0,1,0,1,0,0,2220,0,12,0,Replay
70,2,0,0,-1,-1,0,66.0,35,77,-46,-1,82,26,314,1,0,1,0,0,0,2221,0,12,0,Replay
70,2,0,0,-1,-1,0,66.0,35,77,-46,-1,82,26,314,0,1,0,1,0,0,2222,0,12,0,Replay
70,2,0,0,-1,-1,0,66.0,35,77,-46,-1,82,26,314,1,0,1,0,0,0,2223,0,12,0,Replay
70,2,0,0,-1,-1,0,66.0,35,77,-46,-1,82,26,314,0,1,0,1,0,0,2224,0,12,0,Replay
70,2,0,0,-1,-1,0,66.0,35,77,-46,-1,82,26,314,1,0,1,0,0,0,2225,0,12,0,Replay
70,2,0,0,-1,-1,0,66.0,35,77,-46,-1,82,26,314,0,1,0,1,0,0,2226,0,12,0,Replay
70,2,0,0,-1,-1,0,66.0,35,77,-46,-1,82,26,314,1,0,1,0,0,0,2227,0,12,0,Replay
70,2,0,0,-1,-1,0,66.0,35,77,-46,-1,82,26,314,0,1,0,1,0,0,2228,0,12,0,Replay
70,2,0,0,-1,-1,0,66.0,35,77,-46,-1,82,26,314,1,0,1,0,0,0,2229,0,12,0,Replay
70,2,0,0,-1,-1,0,66.0,35,77,-46,-1,82,26,314,0,1,0,1,0,0,2230,0,12,0,Replay
70,2,0,0,-1,-1,0,66.0,35,77,-46,-1,82,26,314,1,0,1,0,0,0,2231,0,12,0,Replay
70,1,0,0,3,0,0,66.0,36,77,-34,0,85,26,314,0,1,0,1,0,0,2232,0,12,0,Replay
70,1,0,0,3,0,0,66.0,36,77,-34,0,85,26,314,1,0,1,0,0,0,2233,0,12,0,Replay
70,1,0,0,3,0,0,66.0,36,77,-34,0,85,26,314,0,1,0,1,0,0,2234,0,12,0,Replay
70,1,0,0,3,0,0,66.0,36,77,-34,0,85,26,314,1,0,1,0,0,0,2235,0,12,0,Replay
70,1,0,0,3,0,0,66.0,36,77,-34,0,85,26,314,0,1,0,1,0,0,2236,0,12,0,Replay
70,1,0,0,3,0,0,66.0,36,77,-34,0,85,26,314,1,0,1,0,0,0,2237,0,12,0,Replay
70,1,0,0,3,0,0,66.0,36,77,-34,0,85,26,314,0,1,0,1,0,0,2238,0,12,0,Replay
70,1,0,0,3,0,0,66.0,36,77,-34,0,85,26,314,1,0,1,0,0,0,2239,0,12,0,Replay
70,1,0,0,3,0,0,66.0,36,77,-34,0,85,26,314,0,1,0,1,0,0,2240,0,12,0,Replay
70,1,0,0,3,0,0,66.0,36,77,-34,0,85,26,314,1,0,1,0,0,0,2241,0,12,0,Replay
70,1,0,0,3,0,0,66.0,36,77,-34,0,85,26,314,0,1,0,1,0,0,2242,0,12,0,Replay
70,1,0,0,3,0,0,66.0,36,77,-34,0,85,26,314,1,0,1,0,0,0,2243,0,12,0,Replay
70,1,0,0,3,0,0,66.0,36,77,-34,0,85,26,314,0,1,0,1,0,0,2244,0,12,0,Replay
60,1,0,0,-7,-1,0,67.0,36,77,-28,-5,85,26,314,1,0,1,0,0,0,2245,0,12,0,Replay
60,1,0,0,-7,-1,0,67.0,36,77,-28,-5,85,26,314,0,1,0,1,0,0,2246,0,12,0,Replay
60,1,0,0,-7,-1,0,67.0,36,77,-28,-5,85,26,314,1,0,1,0,0,0,2247,0,12,0,Replay
60,1,0,0,-7,-1,0,67.0,36,77,-28,-5,85,26,314,0,1,0,1,0,0,2248,0,12,0,Replay
60,1,0,0,-7,-1,0,67.0,36,77,-28,-5,85,26,314,1,0,1,0,0,0,2249,0,12,0,Replay
60,1,0,0,-7,-1,0,67.0,36,77,-28,-5,85,26,314,0,1,0,1,0,0,2250,0,12,0,Replay
60,1,0,0,-7,-1,0,67.0,36,77,-28,-5,85,26,314,1,0,1,0,0,0,2251,0,12,0,Replay
60,1,0,0,-7,-1,0,67.0,36,77,-28,-5,85,26,314,0,1,0,1,0,0,2252,0,12,0,Replay
60,1,0,0,-7,-1,0,67.0,36,77,-28,-5,85,26,314,1,0,1,0,0,0,2253,0,12,0,Replay
60,1,0,0,-7,-1,0,67.0,36,77,-28,-5,85,26,314,1,0,1,0,0,0,2255,0,12,0,Replay
60,1,0,0,-7,-1,0,67.0,36,77,-28,-5,85,26,314,1,0,1,0,0,0,2269,0,12,0,Replay
60,1,0,0,-7,-1,0,67.0,36,77,-28,-5,85,26,314,0,1,0,1,0,0,2280,0,12,0,Replay
60,1,0,0,-7,-1,0,67.0,36,77,-28,-5,85,26,314,1,0,1,0,0,0,2283,0,12,0,Replay
60,2,0,0,-1,0,0,68.0,37,77,-24,-11,83,26,314,0,1,0,1,0,0,2284,0,12,0,Replay
60,2,0,0,-1,0,0,68.0,37,77,-24,-11,83,26,314,0,1,0,1,0,0,2292,0,12,0,Replay
60,2,0,0,-1,0,0,68.0,37,77,-24,-11,83,26,314,0,1,0,1,0,0,2372,0,12,0,Replay
60,2,0,0,-1,0,0,68.0,37,77,-24,-11,83,26,314,1,0,1,0,0,0,2373,0,12,0,Replay
60,2,0,0,-1,0,0,68.0,37,77,-24,-11,83,26,314,0,1,0,1,0,0,2374,0,12,0,Replay
60,2,0,0,-1,0,0,68.0,37,77,-24,-11,83,26,314,1,0,1,0,0,0,2375,0,12,0,Replay
60,2,0,0,-1,0,0,68.0,37,77,-24,-11,83,26,314,0,1,0,1,0,0,2376,0,12,0,Replay
60,2,0,0,-1,0,0,68.0,37,77,-24,-11,83,26,314,1,0,1,0,0,0,2377,0,12,0,Replay
60,2,0,0,-1,0,0,68.0,37,77,-24,-11,83,26,314,1,0,1,0,0,0,2379,0,12,0,Replay
60,2,0,0,-1,0,0,68.0,37,77,-24,-11,83,26,314,0,1,0,1,0,0,2380,0,12,0,Replay
60,2,0,0,-1,0,0,68.0,37,77,-24,-11,83,26,314,1,0,1,0,0,0,2381,0,12,0,Replay
60,2,0,0,-1,0,0,68.0,37,77,-24,-11,83,26,314,0,1,0,1,0,0,2382,0,12,0,Replay
60,2,0,0,-1,0,0,68.0,37,77,-24,-11,83,26,314,1,0,1,0,0,0,2383,0,12,0,Replay
60,1,0,0,0,0,0,68.0,37,77,-11,-13,82,26,314,0,1,0,1,0,0,2384,0,12,0,Replay
60,1,0,0,0,0,0,68.0,37,77,-11,-13,82,26,314,1,0,1,0,0,0,2385,0,12,0,Replay
60,1,0,0,0,0,0,68.0,37,77,-11,-13,82,26,314,0,1,0,1,0,0,2386,0,12,0,Replay
60,1,0,0,0,0,0,68.0,37,77,-11,-13,82,26,314,1,0,1,0,0,0,2387,0,12,0,Replay
60,1,0,0,0,0,0,68.0,37,77,-11,-13,82,26,314,0,1,0,1,0,0,2388,0,12,0,Replay
60,1,0,0,0,0,0,68.0,37,77,-11,-13,82,26,314,1,0,1,0,0,0,2389,0,12,0,Replay
60,1,0,0,0,0,0,68.0,37,77,-11,-13,82,26,314,0,1,0,1,0,0,2390,0,12,0,Replay
60,1,0,0,0,0,0,68.0,37,77,-11,-13,82,26,314,1,0,1,0,0,0,2391,0,12,0,Replay
60,1,0,0,0,0,0,68.0,37,77,-11,-13,82,26,314,0,1,0,1,0,0,2392,0,12,0,Replay
60,1,0,0,0,0,0,68.0,37,77,-11,-13,82,26,314,1,0,1,0,0,0,2393,0,12,0,Replay
60,1,0,0,0,0,0,68.0,37,77,-11,-13,82,26,314,0,1,0,1,0,0,2394,0,12,0,Replay
60,1,0,0,0,0,0,68.0,37,77,-11,-13,82,26,314,1,0,1,0,0,0,2395,0,12,0,Replay
60,1,0,0,0,0,0,68.0,37,77,-11,-13,82,26,314,0,1,0,1,0,0,2396,0,12,0,Replay
60,1,-1,0,0,0,0,67.0,38,77,-3,-10,80,26,314,1,0,1,0,0,0,2397,0,12,0,Replay
60,1,-1,0,0,0,0,67.0,38,77,-3,-10,80,26,314,0,1,0,1,0,0,2398,0,12,0,Replay
60,1,-1,0,0,0,0,67.0,38,77,-3,-10,80,26,314,1,0,1,0,0,0,2399,0,12,0,Replay
60,1,-1,0,0,0,0,67.0,38,77,-3,-10,80,26,314,0,1,0,1,0,0,2400,0,12,0,Replay
60,1,-1,0,0,0,0,67.0,38,77,-3,-10,80,26,314,1,0,1,0,0,0,2401,0,12,0,Replay
60,1,-1,0,0,0,0,67.0,38,77,-3,-10,80,26,314,0,1,0,1,0,0,2402,0,12,0,Replay
60,1,-1,0,0,0,0,67.0,38,77,-3,-10,80,26,314,1,0,1,0,0,0,2403,0,12,0,Replay
60,1,-1,0,0,0,0,67.0,38,77,-3,-10,80,26,314,0,1,0,1,0,0,2404,0,12,0,Replay
60,1,-1,0,0,0,0,67.0,38,77,-3,-10,80,26,314,1,0,1,0,0,0,2405,0,12,0,Replay
60,1,-1,0,0,0,0,67.0,38,77,-3,-10,80,26,314,0,1,0,1,0,0,2406,0,12,0,Replay
60,1,-1,0,0,0,0,67.0,38,77,-3,-10,80,26,314,1,0,1,0,0,0,2407,0,12,0,Replay
60,1,-1,0,0,0,0,67.0,38,77,-3,-10,80,26,314,0,1,0,1,0,0,2408,0,12,0,Replay
60,1,-1,0,0,0,0,67.0,38,77,-3,-10,80,26,314,1,0,1,0,0,0,2409,0,12,0,Replay
60,0,0,0,-1,0,0,67.0,38,77,-1,-7,80,26,314,0,1,0,1,0,0,2410,0,12,0,Replay
60,0,0,0,-1,0,0,67.0,38,77,-1,-7,80,26,314,1,0,1,0,0,0,2411,0,12,0,Replay
60,0,0,0,-1,0,0,67.0,38,77,-1,-7,80,98,320,0,1,0,1,0,0,1282,0,5,0,Replay
60,0,0,0,-1,0,0,67.0,38,77,-1,-7,80,26,314,0,1,0,1,0,0,2412,0,12,0,Replay
60,0,0,0,-1,0,0,67.0,38,77,-1,-7,80,26,314,1,0,1,0,0,0,2413,0,12,0,Replay
60,0,0,0,-1,0,0,67.0,38,77,-1,-7,80,26,314,0,1,0,1,0,0,2414,0,12,0,Replay
60,0,0,0,-1,0,0,67.0,38,77,-1,-7,80,26,314,1,0,1,0,0,0,2415,0,12,0,Replay
60,0,0,0,-1,0,0,67.0,38,77,-1,-7,80,26,314,0,1,0,1,0,0,2416,0,12,0,Replay
60,0,0,0,-1,0,0,67.0,38,77,-1,-7,80,26,314,1,0,1,0,0,0,2417,0,12,0,Replay
60,0,0,0,-1,0,0,67.0,38,77,-1,-7,80,26,314,0,1,0,1,0,0,2418,0,12,0,Replay
60,0,0,0,-1,0,0,67.0,38,77,-1,-7,80,26,314,1,0,1,0,0,0,2419,0,12,0,Replay
60,0,0,0,-1,0,0,67.0,38,77,-1,-7,80,26,314,0,1,0,1,0,0,2420,0,12,0,Replay
60,0,0,0,-1,0,0,67.0,38,77,-1,-7,80,26,314,1,0,1,0,0,0,2421,0,12,0,Replay
60,0,0,0,-1,0,1,66.0,39,77,-1,-5,81,26,314,0,1,0,1,0,0,2422,0,12,0,Replay
60,0,0,0,-1,0,1,66.0,39,77,-1,-5,81,26,314,1,0,1,0,0,0,2423,0,12,0,Replay
60,0,0,0,-1,0,1,66.0,39,77,-1,-5,81,26,314,0,1,0,1,0,0,2424,0,12,0,Replay
60,0,0,0,-1,0,1,66.0,39,77,-1,-5,81,26,314,1,0,1,0,0,0,2425,0,12,0,Replay
60,0,0,0,-1,0,1,66.0,39,77,-1,-5,81,26,314,0,1,0,1,0,0,2426,0,12,0,Replay
60,0,0,0,-1,0,1,66.0,39,77,-1,-5,81,26,314,1,0,1,0,0,0,2427,0,12,0,Replay
60,0,0,0,-1,0,1,66.0,39,77,-1,-5,81,26,314,0,1,0,1,0,0,2428,0,12,0,Replay
60,0,0,0,-1,0,1,66.0,39,77,-1,-5,81,26,314,1,0,1,0,0,0,2429,0,12,0,Replay
60,0,0,0,-1,0,1,66.0,39,77,-1,-5,81,26,314,0,1,0,1,0,0,2430,0,12,0,Replay
60,0,0,0,-1,0,1,66.0,39,77,-1,-5,81,26,314,1,0,1,0,0,0,2431,0,12,0,Replay
60,0,0,0,-1,0,1,66.0,39,77,-1,-5,81,30,314,1,0,1,0,0,0,1188,0,11,0,Replay
60,0,0,0,-1,0,1,66.0,39,77,-1,-5,81,30,320,0,1,0,1,0,0,1287,0,11,0,Replay
60,0,0,0,-1,0,1,66.0,39,77,-1,-5,81,30,320,0,1,0,1,0,0,1287,0,11,0,Replay
60,0,0,0,-1,0,31,66.0,40,77,-3,-5,81,80,314,1,0,1,0,0,0,1189,0,2,0,Replay
60,0,0,0,-1,0,31,66.0,40,77,-3,-5,81,72,320,0,1,0,1,0,0,1288,0,3,0,Replay
60,0,0,0,-1,0,31,66.0,40,77,-3,-5,81,86,44,1,0,1,0,0,0,0,2,8,0,Replay
60,0,0,0,-1,0,31,66.0,40,77,-3,-5,81,86,44,1,0,1,0,0,0,1,2,8,0,Replay
60,0,0,0,-1,0,31,66.0,40,77,-3,-5,81,86,44,1,0,1,0,0,0,2,2,8,0,Replay
60,0,0,0,-1,0,31,66.0,40,77,-3,-5,81,86,44,1,0,1,0,0,0,3,2,8,0,Replay
60,0,0,0,-1,0,31,66.0,40,77,-3,-5,81,86,44,1,0,1,0,0,0,4,2,8,0,Replay
60,0,0,0,-1,0,31,66.0,40,77,-3,-5,81,86,44,1,0,1,0,0,0,5,2,8,0,Replay
60,0,0,0,-1,0,31,66.0,40,77,-3,-5,81,86,44,1,0,1,0,0,0,8,2,8,0,Replay
60,0,0,0,-1,0,31,66.0,40,77,-3,-5,81,86,44,1,0,1,0,0,0,9,2,8,0,Replay
60,0,0,0,-1,0,31,66.0,40,77,-3,-5,81,86,44,1,0,1,0,0,0,10,2,8,0,Replay
60,0,0,0,-1,0,31,66.0,40,77,-3,-5,81,86,44,1,0,1,0,0,0,11,2,8,0,Replay
60,0,0,0,-1,0,31,66.0,40,77,-3,-5,81,86,44,1,0,1,0,0,0,12,2,8,0,Replay
60,0,0,0,0,-1,69,66.0,40,77,-5,-6,82,86,44,1,0,1,0,0,0,13,2,8,0,Replay
60,0,0,0,0,-1,69,66.0,40,77,-5,-6,82,86,44,1,0,1,0,0,0,14,2,8,0,Replay
60,0,0,0,0,-1,69,66.0,40,77,-5,-6,82,86,44,1,0,1,0,0,0,15,2,8,0,Replay
60,0,0,0,0,-1,69,66.0,40,77,-5,-6,82,86,44,1,0,1,0,0,0,16,2,8,0,Replay
60,0,0,0,0,-1,69,66.0,40,77,-5,-6,82,86,44,1,0,1,0,0,0,17,2,8,0,Replay
60,0,0,0,0,-1,69,66.0,40,77,-5,-6,82,86,44,1,0,1,0,0,0,18,2,8,0,Replay
60,0,0,0,0,-1,69,66.0,40,77,-5,-6,82,86,44,1,0,1,0,0,0,19,2,8,0,Replay
60,0,0,0,0,-1,69,66.0,40,77,-5,-6,82,26,314,1,0,1,0,0,0,2513,0,12,0,Replay
60,0,0,0,0,-1,69,66.0,40,77,-5,-6,82,62,48,0,1,0,1,0,0,651,2,8,0,Replay
60,0,0,0,0,-1,69,66.0,40,77,-5,-6,82,86,44,1,0,1,0,0,0,26,2,8,0,Replay
60,0,0,0,0,-1,69,66.0,40,77,-5,-6,82,86,44,1,0,1,0,0,0,27,2,8,0,Replay
60,0,0,0,0,-1,69,66.0,40,77,-5,-6,82,86,44,1,0,1,0,0,0,32,2,8,0,Replay
60,0,0,0,0,-1,69,66.0,40,77,-5,-6,82,86,44,1,0,1,0,0,0,32,2,8,0,Replay
60,0,0,0,0,0,100,66.0,41,77,-2,-15,81,86,44,1,0,1,0,0,0,32,2,8,0,Replay
60,0,0,0,0,0,100,66.0,41,77,-2,-15,81,86,44,1,0,1,0,0,0,32,2,8,0,Replay
60,0,0,0,0,0,100,66.0,41,77,-2,-15,81,86,44,1,0,1,0,0,0,32,2,8,0,Replay
60,0,0,0,0,0,100,66.0,41,77,-2,-15,81,233,48,0,1,0,1,0,0,652,2,8,171,Replay
60,0,0,0,0,0,100,66.0,41,77,-2,-15,81,86,48,1,0,1,0,0,0,32,2,8,0,Replay
60,0,0,0,0,0,100,66.0,41,77,-2,-15,81,86,44,1,0,1,0,0,0,38,2,8,0,Replay
60,0,0,0,0,0,100,66.0,41,77,-2,-15,81,86,44,1,0,1,0,0,0,39,2,8,0,Replay
60,0,0,0,0,0,100,66.0,41,77,-2,-15,81,234,48,0,1,0,1,0,0,653,2,8,172,Replay
60,0,0,0,0,0,100,66.0,41,77,-2,-15,81,86,44,1,0,1,0,0,0,40,2,8,0,Replay
60,0,0,0,0,0,100,66.0,41,77,-2,-15,81,86,44,1,0,1,0,0,0,41,2,8,0,Replay
60,0,0,0,0,0,100,66.0,41,77,-2,-15,81,26,60,1,0,1,0,0,0,0,2,12,0,Replay
60,0,0,0,0,0,100,66.0,41,77,-2,-15,81,86,44,1,0,1,0,0,0,42,2,8,0,Replay
60,0,0,0,0,0,100,66.0,41,77,-2,-15,81,86,44,1,0,1,0,0,0,43,2,8,0,Replay
60,0,0,0,1,0,129,67.0,41,77,-7,-21,79,86,44,1,0,1,0,0,0,44,2,8,0,Replay
60,0,0,0,1,0,129,67.0,41,77,-7,-21,79,75,48,0,1,0,1,0,0,654,2,8,13,Replay
60,0,0,0,1,0,129,67.0,41,77,-7,-21,79,231,48,0,1,0,1,0,0,655,2,8,169,Replay
60,0,0,0,1,0,129,67.0,41,77,-7,-21,79,26,60,1,0,1,0,0,0,0,2,12,0,Replay
60,0,0,0,1,0,129,67.0,41,77,-7,-21,79,86,44,1,0,1,0,0,0,45,2,8,0,Replay
60,0,0,0,1,0,129,67.0,41,77,-7,-21,79,86,44,1,0,1,0,0,0,46,2,8,0,Replay
60,0,0,0,1,0,129,67.0,41,77,-7,-21,79,26,320,0,1,0,1,0,0,1294,0,12,0,Replay
60,0,0,0,1,0,129,67.0,41,77,-7,-21,79,98,320,0,1,0,1,0,0,1295,0,5,0,Replay
60,0,0,0,1,0,129,67.0,41,77,-7,-21,79,30,314,1,0,1,0,0,0,1190,0,11,0,Replay
60,0,0,0,1,0,129,67.0,41,77,-7,-21,79,30,320,0,1,0,1,0,0,1296,0,11,0,Replay
60,0,0,0,1,0,129,67.0,41,77,-7,-21,79,30,320,0,1,0,1,0,0,1296,0,11,0,Replay
60,0,0,0,1,0,129,67.0,41,77,-7,-21,79,80,314,1,0,1,0,0,0,1191,0,2,0,Replay
60,0,0,0,1,0,129,67.0,41,77,-7,-21,79,72,320,0,1,0,1,0,0,1297,0,3,0,Replay
60,0,0,0,0,0,159,67.0,42,77,-6,-22,79,26,320,0,1,0,1,0,0,1298,0,12,0,Replay
60,0,0,0,0,0,159,67.0,42,77,-6,-22,79,26,320,0,1,0,1,0,0,1299,0,12,0,Replay
60,0,0,0,0,0,159,67.0,42,77,-6,-22,79,98,320,0,1,0,1,0,0,1305,0,5,0,Replay
60,0,0,0,0,0,159,67.0,42,77,-6,-22,79,26,314,0,1,0,1,0,0,3044,0,12,0,Replay
60,0,0,0,0,0,159,67.0,42,77,-6,-22,79,26,314,1,0,1,0,0,0,3045,0,12,0,Replay
60,0,0,0,0,0,159,67.0,42,77,-6,-22,79,26,314,0,1,0,1,0,0,3046,0,12,0,Replay
60,0,0,0,0,0,159,67.0,42,77,-6,-22,79,26,314,1,0,1,0,0,0,3047,0,12,0,Replay
60,0,0,0,0,0,159,67.0,42,77,-6,-22,79,26,314,0,1,0,1,0,0,3048,0,12,0,Replay
60,0,0,0,0,0,159,67.0,42,77,-6,-22,79,26,314,1,0,1,0,0,0,3049,0,12,0,Replay
60,0,0,0,0,0,159,67.0,42,77,-6,-22,79,26,314,0,1,0,1,0,0,3050,0,12,0,Replay
60,0,0,0,0,0,159,67.0,42,77,-6,-22,79,26,314,1,0,1,0,0,0,3051,0,12,0,Replay
60,0,0,0,0,0,159,67.0,42,77,-6,-22,79,26,314,0,1,0,1,0,0,3052,0,12,0,Replay
60,0,0,0,0,0,159,67.0,42,77,-6,-22,79,26,314,1,0,1,0,0,0,3053,0,12,0,Replay
60,0,0,0,0,0,174,67.0,42,77,-7,-23,81,26,314,0,1,0,1,0,0,3054,0,12,0,Replay
60,0,0,0,0,0,174,67.0,42,77,-7,-23,81,26,314,1,0,1,0,0,0,3055,0,12,0,Replay
60,0,0,0,0,0,174,67.0,42,77,-7,-23,81,26,314,0,1,0,1,0,0,3056,0,12,0,Replay
60,0,0,0,0,0,174,67.0,42,77,-7,-23,81,26,314,1,0,1,0,0,0,3057,0,12,0,Replay
60,0,0,0,0,0,174,67.0,42,77,-7,-23,81,26,314,0,1,0,1,0,0,3058,0,12,0,Replay
60,0,0,0,0,0,174,67.0,42,77,-7,-23,81,26,314,1,0,1,0,0,0,3059,0,12,0,Replay
60,0,0,0,0,0,174,67.0,42,77,-7,-23,81,26,314,1,0,1,0,0,0,3061,0,12,0,Replay
60,0,0,0,0,0,174,67.0,42,77,-7,-23,81,26,314,0,1,0,1,0,0,3062,0,12,0,Replay
60,0,0,0,0,0,174,67.0,42,77,-7,-23,81,26,314,1,0,1,0,0,0,3063,0,12,0,Replay
60,0,0,0,0,0,174,67.0,42,77,-7,-23,81,26,314,0,1,0,1,0,0,3064,0,12,0,Replay
60,0,0,0,0,0,174,67.0,42,77,-7,-23,81,26,314,0,1,0,1,0,0,3066,0,12,0,Replay
60,0,0,0,0,0,174,67.0,42,77,-7,-23,81,26,314,1,0,1,0,0,0,3067,0,12,0,Replay
60,0,0,0,0,0,174,67.0,42,77,-7,-23,81,26,314,0,1,0,1,0,0,3068,0,12,0,Replay
60,0,0,0,0,0,176,67.0,42,77,-7,-23,81,26,314,1,0,1,0,0,0,3069,0,12,0,Replay
60,0,0,0,0,0,176,67.0,42,77,-7,-23,81,26,314,0,1,0,1,0,0,3070,0,12,0,Replay
60,0,0,0,0,0,176,67.0,42,77,-7,-23,81,26,314,1,0,1,0,0,0,3071,0,12,0,Replay
60,0,0,0,0,0,176,67.0,42,77,-7,-23,81,26,314,1,0,1,0,0,0,3077,0,12,0,Replay
60,0,0,0,0,0,176,67.0,42,77,-7,-23,81,26,314,0,1,0,1,0,0,3084,0,12,0,Replay
60,0,0,0,0,0,176,67.0,42,77,-7,-23,81,26,314,1,0,1,0,0,0,3091,0,12,0,Replay
60,0,0,0,0,0,176,67.0,42,77,-7,-23,81,26,314,0,1,0,1,0,0,3098,0,12,0,Replay
60,0,0,0,0,0,176,67.0,42,77,-7,-23,81,26,314,1,0,1,0,0,0,3107,0,12,0,Replay
60,0,0,0,0,0,176,67.0,42,77,-7,-23,81,26,314,0,1,0,1,0,0,3112,0,12,0,Replay
60,0,0,0,0,0,176,67.0,42,77,-7,-23,81,26,314,1,0,1,0,0,0,3123,0,12,0,Replay
60,0,0,0,0,0,176,67.0,42,77,-7,-23,81,26,314,1,0,1,0,0,0,3127,0,12,0,Replay
60,0,0,0,0,0,176,67.0,42,77,-7,-23,81,26,314,0,1,0,1,0,0,3134,0,12,0,Replay
60,0,0,0,0,0,176,67.0,42,77,-7,-23,81,26,314,1,0,1,0,0,0,3147,0,12,0,Replay
60,0,0,0,0,0,176,67.0,42,77,-7,-23,81,26,314,1,0,1,0,0,0,3149,0,12,0,Replay
60,0,0,0,0,0,176,67.0,42,77,-7,-23,81,26,314,0,1,0,1,0,0,3160,0,12,0,Replay
60,0,0,0,0,0,176,67.0,42,77,-7,-23,81,26,314,0,1,0,1,0,0,3200,0,12,0,Replay
60,0,0,0,0,0,176,67.0,42,77,-7,-23,81,26,314,1,0,1,0,0,0,3201,0,12,0,Replay
60,0,0,0,0,0,176,67.0,42,77,-7,-23,81,26,314,0,1,0,1,0,0,3202,0,12,0,Replay
60,0,0,0,0,0,176,67.0,42,77,-7,-23,81,26,314,1,0,1,0,0,0,3203,0,12,0,Replay
60,0,0,0,0,0,176,67.0,42,77,-7,-23,81,26,314,0,1,0,1,0,0,3204,0,12,0,Replay
60,0,0,0,0,0,176,67.0,42,77,-7,-23,81,26,314,1,0,1,0,0,0,3205,0,12,0,Replay
60,0,0,0,0,0,176,67.0,42,77,-7,-23,81,26,314,0,1,0,1,0,0,3206,0,12,0,Replay
60,0,0,0,0,0,176,67.0,42,77,-7,-23,81,26,314,1,0,1,0,0,0,3207,0,12,0,Replay
60,0,0,0,0,0,176,67.0,42,77,-7,-23,81,26,314,0,1,0,1,0,0,3208,0,12,0,Replay
60,0,0,0,0,0,176,67.0,42,77,-7,-23,81,26,314,1,0,1,0,0,0,3209,0,12,0,Replay
60,0,0,0,0,0,176,67.0,42,77,-7,-23,81,26,314,0,1,0,1,0,0,3210,0,12,0,Replay
60,0,0,0,0,0,176,67.0,42,77,-7,-23,81,26,314,1,0,1,0,0,0,3211,0,12,0,Replay
60,0,0,0,0,0,176,67.0,42,77,-7,-23,81,26,314,0,1,0,1,0,0,3212,0,12,0,Replay
60,0,0,0,0,0,176,67.0,42,77,-7,-23,81,26,314,1,0,1,0,0,0,3213,0,12,0,Replay
60,0,0,0,0,0,176,67.0,42,77,-7,-23,81,26,314,0,1,0,1,0,0,3214,0,12,0,Replay
60,0,0,0,0,0,176,67.0,42,77,-7,-23,81,26,314,1,0,1,0,0,0,3215,0,12,0,Replay
60,0,0,0,0,0,176,67.0,42,77,-7,-23,81,26,314,0,1,0,1,0,0,3216,0,12,0,Replay
60,0,0,0,0,0,176,67.0,42,77,-7,-23,81,26,314,1,0,1,0,0,0,3217,0,12,0,Replay
60,0,0,0,0,0,176,67.0,42,77,-7,-23,81,26,314,0,1,0,1,0,0,3218,0,12,0,Replay
60,0,0,0,0,0,176,67.0,42,77,-7,-23,81,26,314,0,1,0,1,0,0,3220,0,12,0,Replay
60,0,0,0,0,0,176,67.0,42,77,-7,-23,81,26,314,1,0,1,0,0,0,3221,0,12,0,Replay
60,0,0,0,0,0,176,67.0,42,77,-7,-23,81,26,314,0,1,0,1,0,0,3222,0,12,0,Replay
60,0,0,0,0,0,176,67.0,42,77,-7,-23,81,26,314,1,0,1,0,0,0,3223,0,12,0,Replay
60,0,0,0,0,0,176,67.0,42,77,-7,-23,81,26,314,1,0,1,0,0,0,3225,0,12,0,Replay
60,0,0,0,0,0,178,67.0,44,76,-6,-12,81,26,314,0,1,0,1,0,0,3226,0,12,0,Replay
60,0,0,0,0,0,178,67.0,44,76,-6,-12,81,26,314,1,0,1,0,0,0,3227,0,12,0,Replay
60,0,0,0,0,0,178,67.0,44,76,-6,-12,81,26,314,0,1,0,1,0,0,3228,0,12,0,Replay
60,0,0,0,0,0,178,67.0,44,76,-6,-12,81,26,314,1,0,1,0,0,0,3229,0,12,0,Replay
60,0,0,0,0,0,178,67.0,44,76,-6,-12,81,26,314,0,1,0,1,0,0,3230,0,12,0,Replay
60,0,0,0,0,0,178,67.0,44,76,-6,-12,81,26,314,1,0,1,0,0,0,3231,0,12,0,Replay
60,0,0,0,0,0,178,67.0,44,76,-6,-12,81,26,314,0,1,0,1,0,0,3232,0,12,0,Replay
60,0,0,0,0,0,178,67.0,44,76,-6,-12,81,26,314,1,0,1,0,0,0,3233,0,12,0,Replay
60,0,0,0,0,0,178,67.0,44,76,-6,-12,81,26,314,0,1,0,1,0,0,3234,0,12,0,Replay
60,0,0,0,0,0,178,67.0,44,76,-6,-12,81,26,314,1,0,1,0,0,0,3235,0,12,0,Replay
60,0,0,0,0,0,178,67.0,44,76,-6,-12,81,26,314,0,1,0,1,0,0,3236,0,12,0,Replay
60,0,0,0,0,0,178,67.0,44,76,-6,-12,81,26,314,1,0,1,0,0,0,3237,0,12,0,Replay
60,0,0,0,0,0,178,67.0,44,76,-6,-12,81,26,314,0,1,0,1,0,0,3238,0,12,0,Replay
60,0,0,0,0,0,178,67.0,45,76,-5,-9,81,26,314,1,0,1,0,0,0,3239,0,12,0,Replay
60,0,0,0,0,0,178,67.0,45,76,-5,-9,81,26,314,0,1,0,1,0,0,3240,0,12,0,Replay
60,0,0,0,0,0,178,67.0,45,76,-5,-9,81,26,314,1,0,1,0,0,0,3241,0,12,0,Replay
60,0,0,0,0,0,178,67.0,45,76,-5,-9,81,26,314,0,1,0,1,0,0,3242,0,12,0,Replay
60,0,0,0,0,0,178,67.0,45,76,-5,-9,81,26,314,1,0,1,0,0,0,3243,0,12,0,Replay
60,0,0,0,0,0,178,67.0,45,76,-5,-9,81,26,314,0,1,0,1,0,0,3244,0,12,0,Replay
60,0,0,0,0,0,178,67.0,45,76,-5,-9,81,26,314,1,0,1,0,0,0,3245,0,12,0,Replay
60,0,0,0,0,0,178,67.0,45,76,-5,-9,81,26,314,0,1,0,1,0,0,3246,0,12,0,Replay
60,0,0,0,0,0,178,67.0,45,76,-5,-9,81,26,314,1,0,1,0,0,0,3247,0,12,0,Replay
60,0,0,0,0,0,178,67.0,45,76,-5,-9,81,26,314,0,1,0,1,0,0,3248,0,12,0,Replay
60,0,0,0,0,0,178,67.0,45,76,-5,-9,81,26,314,1,0,1,0,0,0,3249,0,12,0,Replay
60,0,0,0,0,0,178,67.0,45,76,-5,-9,81,26,314,0,1,0,1,0,0,3250,0,12,0,Replay
60,0,0,0,0,0,178,67.0,45,76,-5,-9,81,26,314,1,0,1,0,0,0,3251,0,12,0,Replay
60,0,0,0,0,0,178,67.0,45,76,-6,-8,81,26,314,0,1,0,1,0,0,3252,0,12,0,Replay
60,0,0,0,0,0,178,67.0,45,76,-6,-8,81,26,314,1,0,1,0,0,0,3253,0,12,0,Replay
60,0,0,0,0,0,178,67.0,45,76,-6,-8,81,26,314,0,1,0,1,0,0,3254,0,12,0,Replay
60,0,0,0,0,0,178,67.0,45,76,-6,-8,81,26,314,1,0,1,0,0,0,3255,0,12,0,Replay
60,0,0,0,0,0,178,67.0,45,76,-6,-8,81,26,314,0,1,0,1,0,0,3256,0,12,0,Replay
60,0,0,0,0,0,178,67.0,45,76,-6,-8,81,26,314,1,0,1,0,0,0,3257,0,12,0,Replay
60,0,0,0,0,0,178,67.0,45,76,-6,-8,81,26,314,0,1,0,1,0,0,3258,0,12,0,Replay
60,0,0,0,0,0,178,67.0,45,76,-6,-8,81,26,314,1,0,1,0,0,0,3259,0,12,0,Replay
60,0,0,0,0,0,178,67.0,45,76,-6,-8,81,26,314,0,1,0,1,0,0,3260,0,12,0,Replay
60,0,0,0,0,0,178,67.0,45,76,-6,-8,81,26,314,1,0,1,0,0,0,3261,0,12,0,Replay
60,0,0,0,0,0,178,67.0,45,76,-6,-8,81,26,314,0,1,0,1,0,0,3262,0,12,0,Replay
60,0,0,0,0,0,178,67.0,45,76,-6,-8,81,26,314,1,0,1,0,0,0,3263,0,12,0,Replay
60,0,0,0,0,0,178,67.0,45,76,-6,-8,81,26,314,0,1,0,1,0,0,3264,0,12,0,Replay
60,0,0,0,0,0,178,67.0,46,76,-2,-6,80,26,314,1,0,1,0,0,0,3265,0,12,0,Replay
60,0,0,0,0,0,178,67.0,46,76,-2,-6,80,26,314,0,1,0,1,0,0,3266,0,12,0,Replay
60,0,0,0,0,0,178,67.0,46,76,-2,-6,80,26,314,1,0,1,0,0,0,3267,0,12,0,Replay
60,0,0,0,0,0,178,67.0,46,76,-2,-6,80,26,314,0,1,0,1,0,0,3268,0,12,0,Replay
60,0,0,0,0,0,178,67.0,46,76,-2,-6,80,26,314,1,0,1,0,0,0,3269,0,12,0,Replay
60,0,0,0,0,0,178,67.0,46,76,-2,-6,80,26,314,0,1,0,1,0,0,3270,0,12,0,Replay
60,0,0,0,0,0,178,67.0,46,76,-2,-6,80,26,314,1,0,1,0,0,0,3271,0,12,0,Replay
60,0,0,0,0,0,178,67.0,46,76,-2,-6,80,26,314,0,1,0,1,0,0,3272,0,12,0,Replay
60,0,0,0,0,0,178,67.0,46,76,-2,-6,80,26,314,1,0,1,0,0,0,3273,0,12,0,Replay
60,0,0,0,0,0,178,67.0,46,76,-2,-6,80,26,314,0,1,0,1,0,0,3274,0,12,0,Replay
60,0,0,0,0,0,178,67.0,46,76,-2,-6,80,26,314,1,0,1,0,0,0,3275,0,12,0,Replay
60,0,0,0,0,0,178,67.0,46,76,-2,-6,80,26,314,0,1,0,1,0,0,3276,0,12,0,Replay
60,0,0,0,0,0,178,67.0,46,76,-2,-6,80,26,314,1,0,1,0,0,0,3277,0,12,0,Replay
60,0,0,0,0,0,-170,67.0,46,76,-3,-7,80,26,314,0,1,0,1,0,0,3278,0,12,0,Replay
60,0,0,0,0,0,-170,67.0,46,76,-3,-7,80,26,314,1,0,1,0,0,0,3279,0,12,0,Replay
60,0,0,0,0,0,-170,67.0,46,76,-3,-7,80,86,44,1,0,1,0,0,0,144,2,8,0,Replay
60,0,0,0,0,0,-170,67.0,46,76,-3,-7,80,86,44,1,0,1,0,0,0,145,2,8,0,Replay
60,0,0,0,0,0,-170,67.0,46,76,-3,-7,80,86,44,1,0,1,0,0,0,146,2,8,0,Replay
60,0,0,0,0,0,-170,67.0,46,76,-3,-7,80,86,44,1,0,1,0,0,0,146,2,8,0,Replay
60,0,0,0,0,0,-170,67.0,46,76,-3,-7,80,26,60,1,0,1,0,0,0,0,2,12,0,Replay
60,0,0,0,0,0,-170,67.0,46,76,-3,-7,80,237,44,0,1,0,1,0,0,687,2,8,175,Replay
60,0,0,0,0,0,-170,67.0,46,76,-3,-7,80,86,44,1,0,1,0,0,0,148,2,8,0,Replay
60,0,0,0,0,0,-170,67.0,46,76,-3,-7,80,86,44,1,0,1,0,0,0,149,2,8,0,Replay
60,0,0,0,0,0,-170,67.0,46,76,-3,-7,80,86,44,1,0,1,0,0,0,150,2,8,0,Replay
60,0,0,0,0,0,-170,67.0,46,76,-3,-7,80,86,44,1,0,1,0,0,0,151,2,8,0,Replay
60,0,0,0,0,0,-170,67.0,46,76,-3,-7,80,86,44,1,0,1,0,0,0,152,2,8,0,Replay
60,0,0,0,0,0,-140,67.0,47,76,-3,-5,80,26,60,1,0,1,0,0,0,0,2,12,0,Replay
60,0,0,0,0,0,-140,67.0,47,76,-3,-5,80,236,44,0,1,0,1,0,0,688,2,8,174,Replay
60,0,0,0,0,0,-140,67.0,47,76,-3,-5,80,86,44,1,0,1,0,0,0,153,2,8,0,Replay
60,0,0,0,0,0,-140,67.0,47,76,-3,-5,80,86,44,1,0,1,0,0,0,157,2,8,0,Replay
60,0,0,0,0,0,-140,67.0,47,76,-3,-5,80,86,44,1,0,1,0,0,0,158,2,8,0,Replay
60,0,0,0,0,0,-140,67.0,47,76,-3,-5,80,26,60,1,0,1,0,0,0,0,2,12,0,Replay
60,0,0,0,0,0,-140,67.0,47,76,-3,-5,80,237,44,0,1,0,1,0,0,689,2,8,175,Replay
60,0,0,0,0,0,-140,67.0,47,76,-3,-5,80,86,44,1,0,1,0,0,0,159,2,8,0,Replay
60,0,0,0,0,0,-140,67.0,47,76,-3,-5,80,86,44,1,0,1,0,0,0,160,2,8,0,Replay
60,0,0,0,0,0,-140,67.0,47,76,-3,-5,80,86,44,1,0,1,0,0,0,161,2,8,0,Replay
60,0,0,0,0,0,-140,67.0,47,76,-3,-5,80,86,44,1,0,1,0,0,0,162,2,8,0,Replay
60,0,0,0,0,0,-140,67.0,47,76,-3,-5,80,26,60,1,0,1,0,0,0,0,2,12,0,Replay
60,0,0,0,0,0,-140,67.0,47,76,-3,-5,80,237,44,0,1,0,1,0,0,690,2,8,175,Replay
60,0,0,0,0,0,-105,66.0,47,76,-4,-6,79,86,44,1,0,1,0,0,0,163,2,8,0,Replay
60,0,0,0,0,0,-105,66.0,47,76,-4,-6,79,86,44,1,0,1,0,0,0,164,2,8,0,Replay
60,0,0,0,0,0,-105,66.0,47,76,-4,-6,79,86,44,1,0,1,0,0,0,169,2,8,0,Replay
60,0,0,0,0,0,-105,66.0,47,76,-4,-6,79,86,44,1,0,1,0,0,0,170,2,8,0,Replay
60,0,0,0,0,0,-105,66.0,47,76,-4,-6,79,26,60,1,0,1,0,0,0,0,2,12,0,Replay
60,0,0,0,0,0,-105,66.0,47,76,-4,-6,79,237,44,0,1,0,1,0,0,691,2,8,175,Replay
60,0,0,0,0,0,-105,66.0,47,76,-4,-6,79,26,314,0,1,0,1,0,0,3860,0,12,0,Replay
60,0,0,0,0,0,-105,66.0,47,76,-4,-6,79,26,314,1,0,1,0,0,0,3861,0,12,0,Replay
60,0,0,0,0,0,-105,66.0,47,76,-4,-6,79,26,314,0,1,0,1,0,0,3862,0,12,0,Replay
60,0,0,0,0,0,-105,66.0,47,76,-4,-6,79,26,314,0,1,0,1,0,0,3864,0,12,0,Replay
60,0,0,0,0,0,-105,66.0,47,76,-4,-6,79,26,314,1,0,1,0,0,0,3865,0,12,0,Replay
60,0,0,0,0,0,-105,66.0,47,76,-4,-6,79,26,314,0,1,0,1,0,0,3866,0,12,0,Replay
60,0,0,0,0,0,-105,66.0,47,76,-4,-6,79,26,314,1,0,1,0,0,0,3867,0,12,0,Replay
60,0,0,0,0,0,-76,66.0,48,76,-5,-3,80,26,314,0,1,0,1,0,0,3868,0,12,0,Replay
60,0,0,0,0,0,-76,66.0,48,76,-5,-3,80,26,314,0,1,0,1,0,0,3870,0,12,0,Replay
60,0,0,0,0,0,-76,66.0,48,76,-5,-3,80,26,314,1,0,1,0,0,0,3871,0,12,0,Replay
60,0,0,0,0,0,-76,66.0,48,76,-5,-3,80,26,314,0,1,0,1,0,0,3872,0,12,0,Replay
60,0,0,0,0,0,-76,66.0,48,76,-5,-3,80,26,314,1,0,1,0,0,0,3873,0,12,0,Replay
60,0,0,0,0,0,-76,66.0,48,76,-5,-3,80,26,314,0,1,0,1,0,0,3874,0,12,0,Replay
60,0,0,0,0,0,-76,66.0,48,76,-5,-3,80,26,314,1,0,1,0,0,0,3875,0,12,0,Replay
60,0,0,0,0,0,-76,66.0,48,76,-5,-3,80,26,314,0,1,0,1,0,0,3876,0,12,0,Replay
60,0,0,0,0,0,-76,66.0,48,76,-5,-3,80,26,314,1,0,1,0,0,0,3877,0,12,0,Replay
60,0,0,0,0,0,-76,66.0,48,76,-5,-3,80,26,314,0,1,0,1,0,0,3878,0,12,0,Replay
60,0,0,0,0,0,-76,66.0,48,76,-5,-3,80,26,314,1,0,1,0,0,0,3879,0,12,0,Replay
60,0,0,0,0,0,-76,66.0,48,76,-5,-3,80,26,314,0,1,0,1,0,0,3880,0,12,0,Replay
60,0,0,0,0,0,-76,66.0,48,76,-5,-3,80,26,314,1,0,1,0,0,0,3881,0,12,0,Replay
60,0,0,0,0,0,-47,66.0,48,76,-7,0,81,26,314,0,1,0,1,0,0,3882,0,12,0,Replay
60,0,0,0,0,0,-47,66.0,48,76,-7,0,81,26,314,1,0,1,0,0,0,3883,0,12,0,Replay
60,0,0,0,0,0,-47,66.0,48,76,-7,0,81,26,314,0,1,0,1,0,0,3884,0,12,0,Replay
60,0,0,0,0,0,-47,66.0,48,76,-7,0,81,26,314,1,0,1,0,0,0,3885,0,12,0,Replay
60,0,0,0,0,0,-47,66.0,48,76,-7,0,81,26,314,0,1,0,1,0,0,3886,0,12,0,Replay
60,0,0,0,0,0,-47,66.0,48,76,-7,0,81,26,314,1,0,1,0,0,0,3887,0,12,0,Replay
60,0,0,0,0,0,-47,66.0,48,76,-7,0,81,26,314,0,1,0,1,0,0,3888,0,12,0,Replay
60,0,0,0,0,0,-47,66.0,48,76,-7,0,81,26,314,1,0,1,0,0,0,3889,0,12,0,Replay
60,0,0,0,0,0,-47,66.0,48,76,-7,0,81,26,314,0,1,0,1,0,0,3890,0,12,0,Replay
60,0,0,0,0,0,-47,66.0,48,76,-7,0,81,26,314,1,0,1,0,0,0,3891,0,12,0,Replay
60,0,0,0,0,0,-47,66.0,48,76,-7,0,81,26,314,0,1,0,1,0,0,3892,0,12,0,Replay
60,0,0,0,0,0,-47,66.0,48,76,-7,0,81,26,314,1,0,1,0,0,0,3893,0,12,0,Replay
60,0,0,0,0,0,-47,66.0,48,76,-7,0,81,26,314,0,1,0,1,0,0,3894,0,12,0,Replay
60,0,0,0,0,0,-18,67.0,49,76,-2,-1,82,26,314,1,0,1,0,0,0,3895,0,12,0,Replay
60,0,0,0,0,0,-18,67.0,49,76,-2,-1,82,26,314,0,1,0,1,0,0,3896,0,12,0,Replay
60,0,0,0,0,0,-18,67.0,49,76,-2,-1,82,26,314,1,0,1,0,0,0,3897,0,12,0,Replay
60,0,0,0,0,0,-18,67.0,49,76,-2,-1,82,26,314,0,1,0,1,0,0,3898,0,12,0,Replay
60,0,0,0,0,0,-18,67.0,49,76,-2,-1,82,26,314,1,0,1,0,0,0,3899,0,12,0,Replay
60,0,0,0,0,0,-18,67.0,49,76,-2,-1,82,26,314,0,1,0,1,0,0,3900,0,12,0,Replay
60,0,0,0,0,0,-18,67.0,49,76,-2,-1,82,26,314,1,0,1,0,0,0,3901,0,12,0,Replay
60,0,0,0,0,0,-18,67.0,49,76,-2,-1,82,26,314,0,1,0,1,0,0,3902,0,12,0,Replay
60,0,0,0,0,0,-18,67.0,49,76,-2,-1,82,26,314,1,0,1,0,0,0,3903,0,12,0,Replay
60,0,0,0,0,0,-18,67.0,49,76,-2,-1,82,26,314,0,1,0,1,0,0,3904,0,12,0,Replay
60,0,0,0,0,0,-18,67.0,49,76,-2,-1,82,26,314,1,0,1,0,0,0,3905,0,12,0,Replay
60,0,0,0,0,0,-18,67.0,49,76,-2,-1,82,26,314,0,1,0,1,0,0,3906,0,12,0,Replay
60,0,0,0,0,0,-18,67.0,49,76,-2,-1,82,26,314,1,0,1,0,0,0,3907,0,12,0,Replay
60,0,0,0,0,0,-4,67.0,50,76,-4,0,81,26,314,0,1,0,1,0,0,3908,0,12,0,Replay
60,0,0,0,0,0,-4,67.0,50,76,-4,0,81,26,314,1,0,1,0,0,0,3909,0,12,0,Replay
60,0,0,0,0,0,-4,67.0,50,76,-4,0,81,26,314,0,1,0,1,0,0,3910,0,12,0,Replay
60,0,0,0,0,0,-4,67.0,50,76,-4,0,81,26,314,1,0,1,0,0,0,3911,0,12,0,Replay
60,0,0,0,0,0,-4,67.0,50,76,-4,0,81,26,314,0,1,0,1,0,0,3912,0,12,0,Replay
60,0,0,0,0,0,-4,67.0,50,76,-4,0,81,26,314,1,0,1,0,0,0,3913,0,12,0,Replay
60,0,0,0,0,0,-4,67.0,50,76,-4,0,81,26,314,0,1,0,1,0,0,3914,0,12,0,Replay
60,0,0,0,0,0,-4,67.0,50,76,-4,0,81,26,314,1,0,1,0,0,0,3915,0,12,0,Replay
60,0,0,0,0,0,-4,67.0,50,76,-4,0,81,26,314,0,1,0,1,0,0,3916,0,12,0,Replay
60,0,0,0,0,0,-4,67.0,50,76,-4,0,81,26,314,1,0,1,0,0,0,3917,0,12,0,Replay
60,0,0,0,0,0,-4,67.0,50,76,-4,0,81,26,314,0,1,0,1,0,0,3918,0,12,0,Replay
60,0,0,0,0,0,-4,67.0,50,76,-4,0,81,26,314,1,0,1,0,0,0,3919,0,12,0,Replay
60,0,0,0,0,0,-4,67.0,50,76,-4,0,81,26,314,0,1,0,1,0,0,3920,0,12,0,Replay
60,0,0,0,0,0,-3,67.0,50,76,-1,0,81,26,314,1,0,1,0,0,0,3921,0,12,0,Replay
60,0,0,0,0,0,-3,67.0,50,76,-1,0,81,26,314,0,1,0,1,0,0,3922,0,12,0,Replay
60,0,0,0,0,0,-3,67.0,50,76,-1,0,81,26,314,1,0,1,0,0,0,3923,0,12,0,Replay
60,0,0,0,0,0,-3,67.0,50,76,-1,0,81,26,314,0,1,0,1,0,0,3924,0,12,0,Replay
60,0,0,0,0,0,-3,67.0,50,76,-1,0,81,26,314,1,0,1,0,0,0,3925,0,12,0,Replay
60,0,0,0,0,0,-3,67.0,50,76,-1,0,81,26,314,0,1,0,1,0,0,3926,0,12,0,Replay
60,0,0,0,0,0,-3,67.0,50,76,-1,0,81,26,314,1,0,1,0,0,0,3927,0,12,0,Replay
60,0,0,0,0,0,-3,67.0,50,76,-1,0,81,26,314,0,1,0,1,0,0,3928,0,12,0,Replay
60,0,0,0,0,0,-3,67.0,50,76,-1,0,81,26,314,1,0,1,0,0,0,3929,0,12,0,Replay
60,0,0,0,0,0,-3,67.0,50,76,-1,0,81,26,314,0,1,0,1,0,0,3930,0,12,0,Replay
60,0,0,0,0,0,-3,67.0,50,76,-1,0,81,26,314,1,0,1,0,0,0,3931,0,12,0,Replay
60,0,0,0,0,0,-3,67.0,50,76,-1,0,81,26,314,0,1,0,1,0,0,3932,0,12,0,Replay
60,0,0,0,0,0,-3,67.0,50,76,-1,0,81,26,314,1,0,1,0,0,0,3933,0,12,0,Replay
60,0,0,0,0,0,-3,67.0,51,76,0,-3,80,26,314,0,1,0,1,0,0,3934,0,12,0,Replay
60,0,0,0,0,0,-3,67.0,51,76,0,-3,80,26,314,1,0,1,0,0,0,3935,0,12,0,Replay
60,0,0,0,0,0,-3,67.0,51,76,0,-3,80,26,314,0,1,0,1,0,0,3936,0,12,0,Replay
60,0,0,0,0,0,-3,67.0,51,76,0,-3,80,26,314,1,0,1,0,0,0,3937,0,12,0,Replay
60,0,0,0,0,0,-3,67.0,51,76,0,-3,80,26,314,0,1,0,1,0,0,3938,0,12,0,Replay
60,0,0,0,0,0,-3,67.0,51,76,0,-3,80,26,314,1,0,1,0,0,0,3939,0,12,0,Replay
60,0,0,0,0,0,-3,67.0,51,76,0,-3,80,26,314,0,1,0,1,0,0,3940,0,12,0,Replay
60,0,0,0,0,0,-3,67.0,51,76,0,-3,80,26,314,1,0,1,0,0,0,3941,0,12,0,Replay
60,0,0,0,0,0,-3,67.0,51,76,0,-3,80,26,314,0,1,0,1,0,0,3942,0,12,0,Replay
60,0,0,0,0,0,-3,67.0,51,76,0,-3,80,26,314,1,0,1,0,0,0,3943,0,12,0,Replay
60,0,0,0,0,0,-3,67.0,51,76,0,-3,80,26,314,0,1,0,1,0,0,3944,0,12,0,Replay
60,0,0,0,0,0,-3,67.0,51,76,0,-3,80,26,314,1,0,1,0,0,0,3945,0,12,0,Replay
60,0,0,0,0,0,-3,67.0,51,76,0,-3,80,26,314,0,1,0,1,0,0,3946,0,12,0,Replay
60,0,0,0,-9,0,-3,68.0,51,76,0,-4,80,26,314,1,0,1,0,0,0,3947,0,12,0,Replay
60,0,0,0,-9,0,-3,68.0,51,76,0,-4,80,26,314,0,1,0,1,0,0,3948,0,12,0,Replay
60,0,0,0,-9,0,-3,68.0,51,76,0,-4,80,26,314,1,0,1,0,0,0,3949,0,12,0,Replay
60,0,0,0,-9,0,-3,68.0,51,76,0,-4,80,26,314,0,1,0,1,0,0,3950,0,12,0,Replay
60,0,0,0,-9,0,-3,68.0,51,76,0,-4,80,26,314,1,0,1,0,0,0,3951,0,12,0,Replay
60,0,0,0,-9,0,-3,68.0,51,76,0,-4,80,26,314,0,1,0,1,0,0,3952,0,12,0,Replay
60,0,0,0,-9,0,-3,68.0,51,76,0,-4,80,26,314,1,0,1,0,0,0,3953,0,12,0,Replay
60,0,0,0,-9,0,-3,68.0,51,76,0,-4,80,26,314,0,1,0,1,0,0,3954,0,12,0,Replay
60,0,0,0,-9,0,-3,68.0,51,76,0,-4,80,26,314,1,0,1,0,0,0,3957,0,12,0,Replay
60,0,0,0,-9,0,-3,68.0,51,76,0,-4,80,26,314,0,1,0,1,0,0,3974,0,12,0,Replay
60,0,0,0,-9,0,-3,68.0,51,76,0,-4,80,26,314,0,1,0,1,0,0,4072,0,12,0,Replay
60,0,0,0,-9,0,-3,68.0,51,76,0,-4,80,26,314,1,0,1,0,0,0,4073,0,12,0,Replay
60,0,0,0,-9,0,-3,68.0,51,76,0,-4,80,26,314,0,1,0,1,0,0,4074,0,12,0,Replay
60,3,0,0,0,0,-3,68.0,52,75,23,-18,74,26,314,1,0,1,0,0,0,4075,0,12,0,Replay
60,3,0,0,0,0,-3,68.0,52,75,23,-18,74,26,314,0,1,0,1,0,0,4076,0,12,0,Replay
60,3,0,0,0,0,-3,68.0,52,75,23,-18,74,26,314,1,0,1,0,0,0,4077,0,12,0,Replay
60,3,0,0,0,0,-3,68.0,52,75,23,-18,74,26,314,0,1,0,1,0,0,4078,0,12,0,Replay
60,3,0,0,0,0,-3,68.0,52,75,23,-18,74,26,314,1,0,1,0,0,0,4079,0,12,0,Replay
60,3,0,0,0,0,-3,68.0,52,75,23,-18,74,26,314,0,1,0,1,0,0,4080,0,12,0,Replay
60,3,0,0,0,0,-3,68.0,52,75,23,-18,74,26,314,1,0,1,0,0,0,4081,0,12,0,Replay
60,3,0,0,0,0,-3,68.0,52,75,23,-18,74,26,314,0,1,0,1,0,0,4082,0,12,0,Replay
60,3,0,0,0,0,-3,68.0,52,75,23,-18,74,26,314,1,0,1,0,0,0,4083,0,12,0,Replay
60,3,0,0,0,0,-3,68.0,52,75,23,-18,74,26,314,0,1,0,1,0,0,4084,0,12,0,Replay
60,3,0,0,0,0,-3,68.0,52,75,23,-18,74,26,314,1,0,1,0,0,0,4085,0,12,0,Replay
60,3,0,0,0,0,-3,68.0,52,75,23,-18,74,26,314,1,0,1,0,0,0,4087,0,12,0,Replay
60,3,0,0,0,0,-3,68.0,52,75,23,-18,74,26,314,1,0,1,0,0,0,4089,0,12,0,Replay
60,2,0,0,-1,0,-3,67.0,52,75,40,-15,74,26,314,0,1,0,1,0,0,4090,0,12,0,Replay
60,2,0,0,-1,0,-3,67.0,52,75,40,-15,74,26,314,1,0,1,0,0,0,4091,0,12,0,Replay
60,2,0,0,-1,0,-3,67.0,52,75,40,-15,74,26,314,0,1,0,1,0,0,4094,0,12,0,Replay
60,2,0,0,-1,0,-3,67.0,52,75,40,-15,74,62,48,0,1,0,1,0,0,727,2,8,0,Replay
60,2,0,0,-1,0,-3,67.0,52,75,40,-15,74,238,48,0,1,0,1,0,0,728,2,8,176,Replay
60,2,0,0,-1,0,-3,67.0,52,75,40,-15,74,26,60,1,0,1,0,0,0,0,2,12,0,Replay
60,2,0,0,-1,0,-3,67.0,52,75,40,-15,74,86,44,1,0,1,0,0,0,72,2,8,0,Replay
60,2,0,0,-1,0,-3,67.0,52,75,40,-15,74,86,44,1,0,1,0,0,0,73,2,8,0,Replay
60,2,0,0,-1,0,-3,67.0,52,75,40,-15,74,86,44,1,0,1,0,0,0,74,2,8,0,Replay
60,2,0,0,-1,0,-3,67.0,52,75,40,-15,74,86,44,1,0,1,0,0,0,75,2,8,0,Replay
60,2,0,0,-1,0,-3,67.0,52,75,40,-15,74,239,48,0,1,0,1,0,0,729,2,8,177,Replay
60,2,0,0,-1,0,-3,67.0,52,75,40,-15,74,86,44,1,0,1,0,0,0,76,2,8,0,Replay
60,2,0,0,-1,0,-3,67.0,52,75,40,-15,74,26,60,1,0,1,0,0,0,0,2,12,0,Replay
60,2,0,0,-1,0,-3,67.0,53,75,44,-19,79,86,44,1,0,1,0,0,0,77,2,8,0,Replay
60,2,0,0,-1,0,-3,67.0,53,75,44,-19,79,75,48,0,1,0,1,0,0,730,2,8,13,Replay
60,2,0,0,-1,0,-3,67.0,53,75,44,-19,79,239,48,0,1,0,1,0,0,731,2,8,177,Replay
60,2,0,0,-1,0,-3,67.0,53,75,44,-19,79,86,44,1,0,1,0,0,0,78,2,8,0,Replay
60,2,0,0,-1,0,-3,67.0,53,75,44,-19,79,26,60,1,0,1,0,0,0,0,2,12,0,Replay
60,2,0,0,-1,0,-3,67.0,53,75,44,-19,79,86,44,1,0,1,0,0,0,79,2,8,0,Replay
60,2,0,0,-1,0,-3,67.0,53,75,44,-19,79,86,44,1,0,1,0,0,0,82,2,8,0,Replay
60,2,0,0,-1,0,-3,67.0,53,75,44,-19,79,86,44,1,0,1,0,0,0,83,2,8,0,Replay
60,2,0,0,-1,0,-3,67.0,53,75,44,-19,79,86,44,1,0,1,0,0,0,84,2,8,0,Replay
60,2,0,0,-1,0,-3,67.0,53,75,44,-19,79,74,48,0,1,0,1,0,0,732,2,8,12,Replay
60,2,0,0,-1,0,-3,67.0,53,75,44,-19,79,239,48,0,1,0,1,0,0,733,2,8,177,Replay
60,2,0,0,-1,0,-3,67.0,53,75,44,-19,79,86,44,1,0,1,0,0,0,85,2,8,0,Replay
60,2,0,0,-1,0,-3,67.0,53,75,44,-19,79,26,60,1,0,1,0,0,0,0,2,12,0,Replay
60,2,0,0,0,0,-3,67.0,53,75,51,-31,70,241,48,0,1,0,1,0,0,734,2,8,179,Replay
60,2,0,0,0,0,-3,67.0,53,75,51,-31,70,86,44,1,0,1,0,0,0,86,2,8,0,Replay
60,2,0,0,0,0,-3,67.0,53,75,51,-31,70,86,44,1,0,1,0,0,0,87,2,8,0,Replay
60,2,0,0,0,0,-3,67.0,53,75,51,-31,70,26,60,1,0,1,0,0,0,0,2,12,0,Replay
60,2,0,0,0,0,-3,67.0,53,75,51,-31,70,26,314,0,1,0,1,0,0,640,0,12,0,Replay
60,2,0,0,0,0,-3,67.0,53,75,51,-31,70,26,314,1,0,1,0,0,0,641,0,12,0,Replay
60,2,0,0,0,0,-3,67.0,53,75,51,-31,70,26,314,0,1,0,1,0,0,642,0,12,0,Replay
60,2,0,0,0,0,-3,67.0,53,75,51,-31,70,26,314,1,0,1,0,0,0,643,0,12,0,Replay
60,2,0,0,0,0,-3,67.0,53,75,51,-31,70,26,314,0,1,0,1,0,0,644,0,12,0,Replay
60,2,0,0,0,0,-3,67.0,53,75,51,-31,70,26,314,1,0,1,0,0,0,645,0,12,0,Replay
60,2,0,0,0,0,-3,67.0,53,75,51,-31,70,26,314,0,1,0,1,0,0,646,0,12,0,Replay
60,2,0,0,0,0,-3,67.0,53,75,51,-31,70,26,314,1,0,1,0,0,0,647,0,12,0,Replay
60,2,0,0,0,0,-3,67.0,53,75,51,-31,70,26,314,0,1,0,1,0,0,648,0,12,0,Replay
60,0,-1,0,1,2,-3,67.0,54,75,51,-31,70,26,314,1,0,1,0,0,0,649,0,12,0,Replay
60,0,-1,0,1,2,-3,67.0,54,75,51,-31,70,26,314,0,1,0,1,0,0,650,0,12,0,Replay
60,0,-1,0,1,2,-3,67.0,54,75,51,-31,70,26,314,1,0,1,0,0,0,651,0,12,0,Replay
60,0,-1,0,1,2,-3,67.0,54,75,51,-31,70,26,314,0,1,0,1,0,0,652,0,12,0,Replay
60,0,-1,0,1,2,-3,67.0,54,75,51,-31,70,26,314,1,0,1,0,0,0,653,0,12,0,Replay
60,0,-1,0,1,2,-3,67.0,54,75,51,-31,70,26,314,0,1,0,1,0,0,654,0,12,0,Replay
60,0,-1,0,1,2,-3,67.0,54,75,51,-31,70,26,314,1,0,1,0,0,0,655,0,12,0,Replay
60,0,-1,0,1,2,-3,67.0,54,75,51,-31,70,26,314,0,1,0,1,0,0,656,0,12,0,Replay
60,0,-1,0,1,2,-3,67.0,54,75,51,-31,70,26,314,1,0,1,0,0,0,657,0,12,0,Replay
60,0,-1,0,1,2,-3,67.0,54,75,51,-31,70,26,314,0,1,0,1,0,0,658,0,12,0,Replay
60,0,-1,0,1,2,-3,67.0,54,75,51,-31,70,26,314,1,0,1,0,0,0,659,0,12,0,Replay
60,0,-1,0,1,2,-3,67.0,54,75,51,-31,70,26,314,0,1,0,1,0,0,660,0,12,0,Replay
60,0,-1,0,1,2,-3,67.0,54,75,51,-31,70,26,314,1,0,1,0,0,0,661,0,12,0,Replay
60,-1,0,0,8,-3,-3,67.0,54,75,51,-31,70,26,314,0,1,0,1,0,0,662,0,12,0,Replay
60,-1,0,0,8,-3,-3,67.0,54,75,51,-31,70,26,314,1,0,1,0,0,0,663,0,12,0,Replay
60,-1,0,0,8,-3,-3,67.0,54,75,51,-31,70,26,314,0,1,0,1,0,0,664,0,12,0,Replay
60,-1,0,0,8,-3,-3,67.0,54,75,51,-31,70,26,314,0,1,0,1,0,0,666,0,12,0,Replay
60,-1,0,0,8,-3,-3,67.0,54,75,51,-31,70,26,314,1,0,1,0,0,0,667,0,12,0,Replay
60,-1,0,0,8,-3,-3,67.0,54,75,51,-31,70,26,314,0,1,0,1,0,0,668,0,12,0,Replay
60,-1,0,0,8,-3,-3,67.0,54,75,51,-31,70,26,314,1,0,1,0,0,0,687,0,12,0,Replay
60,-1,0,0,8,-3,-3,67.0,54,75,51,-31,70,26,314,0,1,0,1,0,0,704,0,12,0,Replay
60,-1,0,0,8,-3,-3,67.0,54,75,51,-31,70,26,314,1,0,1,0,0,0,717,0,12,0,Replay
60,-1,0,0,8,-3,-3,67.0,54,75,51,-31,70,26,314,1,0,1,0,0,0,723,0,12,0,Replay
60,-1,0,0,8,-3,-3,67.0,54,75,51,-31,70,26,314,0,1,0,1,0,0,746,0,12,0,Replay
60,-1,0,0,8,-3,-3,67.0,54,75,51,-31,70,26,314,0,1,0,1,0,0,750,0,12,0,Replay
60,-1,0,0,8,-3,-3,67.0,54,75,51,-31,70,26,314,0,1,0,1,0,0,786,0,12,0,Replay
60,-4,-1,0,1,-1,-3,67.0,55,75,51,-31,70,26,314,1,0,1,0,0,0,787,0,12,0,Replay
60,-4,-1,0,1,-1,-3,67.0,55,75,51,-31,70,26,314,0,1,0,1,0,0,788,0,12,0,Replay
60,-4,-1,0,1,-1,-3,67.0,55,75,51,-31,70,26,314,1,0,1,0,0,0,789,0,12,0,Replay
60,-4,-1,0,1,-1,-3,67.0,55,75,51,-31,70,26,314,0,1,0,1,0,0,790,0,12,0,Replay
60,-4,-1,0,1,-1,-3,67.0,55,75,51,-31,70,26,314,1,0,1,0,0,0,791,0,12,0,Replay
60,-4,-1,0,1,-1,-3,67.0,55,75,51,-31,70,26,314,0,1,0,1,0,0,792,0,12,0,Replay
60,-4,-1,0,1,-1,-3,67.0,55,75,51,-31,70,26,314,1,0,1,0,0,0,793,0,12,0,Replay
60,-4,-1,0,1,-1,-3,67.0,55,75,51,-31,70,26,314,0,1,0,1,0,0,794,0,12,0,Replay
60,-4,-1,0,1,-1,-3,67.0,55,75,51,-31,70,26,314,1,0,1,0,0,0,795,0,12,0,Replay
60,-4,-1,0,1,-1,-3,67.0,55,75,51,-31,70,26,314,0,1,0,1,0,0,796,0,12,0,Replay
60,-4,-1,0,1,-1,-3,67.0,55,75,51,-31,70,26,314,1,0,1,0,0,0,797,0,12,0,Replay
60,-4,-1,0,1,-1,-3,67.0,55,75,51,-31,70,26,314,0,1,0,1,0,0,798,0,12,0,Replay
60,-4,-1,0,1,-1,-3,67.0,55,75,51,-31,70,26,314,1,0,1,0,0,0,799,0,12,0,Replay
60,-4,-1,0,0,0,-3,67.0,55,75,51,-31,70,26,314,0,1,0,1,0,0,800,0,12,0,Replay
60,-4,-1,0,0,0,-3,67.0,55,75,51,-31,70,26,314,1,0,1,0,0,0,801,0,12,0,Replay
60,-4,-1,0,0,0,-3,67.0,55,75,51,-31,70,26,314,0,1,0,1,0,0,802,0,12,0,Replay
60,-4,-1,0,0,0,-3,67.0,55,75,51,-31,70,26,314,1,0,1,0,0,0,803,0,12,0,Replay
60,-4,-1,0,0,0,-3,67.0,55,75,51,-31,70,26,314,0,1,0,1,0,0,804,0,12,0,Replay
60,-4,-1,0,0,0,-3,67.0,55,75,51,-31,70,26,314,0,1,0,1,0,0,806,0,12,0,Replay
60,-4,-1,0,0,0,-3,67.0,55,75,51,-31,70,26,314,0,1,0,1,0,0,808,0,12,0,Replay
60,-4,-1,0,0,0,-3,67.0,55,75,51,-31,70,26,314,1,0,1,0,0,0,809,0,12,0,Replay
60,-4,-1,0,0,0,-3,67.0,55,75,51,-31,70,26,314,0,1,0,1,0,0,810,0,12,0,Replay
60,-4,-1,0,0,0,-3,67.0,55,75,51,-31,70,26,314,1,0,1,0,0,0,811,0,12,0,Replay
60,-4,-1,0,0,0,-3,67.0,55,75,51,-31,70,26,314,0,1,0,1,0,0,812,0,12,0,Replay
60,-4,-1,0,0,0,-3,67.0,55,75,51,-31,70,26,314,1,0,1,0,0,0,813,0,12,0,Replay
60,-4,-1,0,0,0,-3,67.0,55,75,51,-31,70,26,314,0,1,0,1,0,0,814,0,12,0,Replay
60,-2,0,0,-1,0,-3,67.0,56,75,24,7,83,26,314,1,0,1,0,0,0,815,0,12,0,Replay
60,-2,0,0,-1,0,-3,67.0,56,75,24,7,83,26,314,0,1,0,1,0,0,816,0,12,0,Replay
60,-2,0,0,-1,0,-3,67.0,56,75,24,7,83,26,314,1,0,1,0,0,0,817,0,12,0,Replay
60,-2,0,0,-1,0,-3,67.0,56,75,24,7,83,26,314,0,1,0,1,0,0,818,0,12,0,Replay
60,-2,0,0,-1,0,-3,67.0,56,75,24,7,83,26,314,1,0,1,0,0,0,819,0,12,0,Replay
60,-2,0,0,-1,0,-3,67.0,56,75,24,7,83,26,314,0,1,0,1,0,0,820,0,12,0,Replay
60,-2,0,0,-1,0,-3,67.0,56,75,24,7,83,26,314,1,0,1,0,0,0,821,0,12,0,Replay
60,-2,0,0,-1,0,-3,67.0,56,75,24,7,83,26,314,0,1,0,1,0,0,822,0,12,0,Replay
60,-2,0,0,-1,0,-3,67.0,56,75,24,7,83,26,314,1,0,1,0,0,0,823,0,12,0,Replay
60,-2,0,0,-1,0,-3,67.0,56,75,24,7,83,26,314,0,1,0,1,0,0,824,0,12,0,Replay
60,-2,0,0,-1,0,-3,67.0,56,75,24,7,83,26,314,1,0,1,0,0,0,825,0,12,0,Replay
60,-2,0,0,-1,0,-3,67.0,56,75,24,7,83,26,314,0,1,0,1,0,0,826,0,12,0,Replay
60,-2,0,0,-1,0,-3,67.0,56,75,24,7,83,26,314,1,0,1,0,0,0,827,0,12,0,Replay
60,-1,0,0,0,0,-3,67.0,56,74,7,9,83,26,314,0,1,0,1,0,0,828,0,12,0,Replay
60,-1,0,0,0,0,-3,67.0,56,74,7,9,83,26,314,1,0,1,0,0,0,829,0,12,0,Replay
60,-1,0,0,0,0,-3,67.0,56,74,7,9,83,26,314,0,1,0,1,0,0,830,0,12,0,Replay
60,-1,0,0,0,0,-3,67.0,56,74,7,9,83,26,314,1,0,1,0,0,0,831,0,12,0,Replay
60,-1,0,0,0,0,-3,67.0,56,74,7,9,83,26,314,0,1,0,1,0,0,832,0,12,0,Replay
60,-1,0,0,0,0,-3,67.0,56,74,7,9,83,26,314,1,0,1,0,0,0,833,0,12,0,Replay
60,-1,0,0,0,0,-3,67.0,56,74,7,9,83,26,314,0,1,0,1,0,0,834,0,12,0,Replay
60,-1,0,0,0,0,-3,67.0,56,74,7,9,83,26,314,0,1,0,1,0,0,836,0,12,0,Replay
60,-1,0,0,0,0,-3,67.0,56,74,7,9,83,26,314,1,0,1,0,0,0,837,0,12,0,Replay
60,-1,0,0,0,0,-3,67.0,56,74,7,9,83,26,314,0,1,0,1,0,0,838,0,12,0,Replay
60,-1,0,0,0,0,-3,67.0,56,74,7,9,83,26,314,1,0,1,0,0,0,839,0,12,0,Replay
60,-1,0,0,0,0,-3,67.0,56,74,7,9,83,26,314,0,1,0,1,0,0,840,0,12,0,Replay
60,-1,0,0,0,0,-3,67.0,56,74,7,9,83,26,314,1,0,1,0,0,0,841,0,12,0,Replay
60,0,0,0,-1,0,-3,67.0,57,74,3,13,81,26,314,0,1,0,1,0,0,842,0,12,0,Replay
60,0,0,0,-1,0,-3,67.0,57,74,3,13,81,26,314,1,0,1,0,0,0,843,0,12,0,Replay
60,0,0,0,-1,0,-3,67.0,57,74,3,13,81,26,314,0,1,0,1,0,0,844,0,12,0,Replay
60,0,0,0,-1,0,-3,67.0,57,74,3,13,81,26,314,1,0,1,0,0,0,845,0,12,0,Replay
60,0,0,0,-1,0,-3,67.0,57,74,3,13,81,26,314,0,1,0,1,0,0,846,0,12,0,Replay
60,0,0,0,-1,0,-3,67.0,57,74,3,13,81,26,314,1,0,1,0,0,0,847,0,12,0,Replay
60,0,0,0,-1,0,-3,67.0,57,74,3,13,81,26,314,0,1,0,1,0,0,848,0,12,0,Replay
60,0,0,0,-1,0,-3,67.0,57,74,3,13,81,26,314,1,0,1,0,0,0,849,0,12,0,Replay
60,0,0,0,-1,0,-3,67.0,57,74,3,13,81,26,314,0,1,0,1,0,0,850,0,12,0,Replay
60,0,0,0,-1,0,-3,67.0,57,74,3,13,81,26,314,1,0,1,0,0,0,851,0,12,0,Replay
60,0,0,0,-1,0,-3,67.0,57,74,3,13,81,26,314,0,1,0,1,0,0,852,0,12,0,Replay
60,0,0,0,-1,0,-3,67.0,57,74,3,13,81,26,314,1,0,1,0,0,0,853,0,12,0,Replay
60,0,0,0,-1,0,-3,67.0,57,74,3,13,81,26,314,0,1,0,1,0,0,854,0,12,0,Replay
60,0,0,0,0,0,-3,67.0,57,74,3,4,82,26,314,1,0,1,0,0,0,855,0,12,0,Replay
60,0,0,0,0,0,-3,67.0,57,74,3,4,82,26,314,0,1,0,1,0,0,856,0,12,0,Replay
60,0,0,0,0,0,-3,67.0,57,74,3,4,82,26,314,1,0,1,0,0,0,857,0,12,0,Replay
60,0,0,0,0,0,-3,67.0,57,74,3,4,82,26,314,0,1,0,1,0,0,858,0,12,0,Replay
60,0,0,0,0,0,-3,67.0,57,74,3,4,82,26,314,1,0,1,0,0,0,859,0,12,0,Replay
60,0,0,0,0,0,-3,67.0,57,74,3,4,82,26,314,0,1,0,1,0,0,860,0,12,0,Replay
60,0,0,0,0,0,-3,67.0,57,74,3,4,82,26,314,1,0,1,0,0,0,861,0,12,0,Replay
60,0,0,0,0,0,-3,67.0,57,74,3,4,82,26,314,0,1,0,1,0,0,862,0,12,0,Replay
60,0,0,0,0,0,-3,67.0,57,74,3,4,82,26,314,1,0,1,0,0,0,863,0,12,0,Replay
60,0,0,0,0,0,-3,67.0,57,74,3,4,82,26,314,0,1,0,1,0,0,864,0,12,0,Replay
60,0,0,0,0,0,-3,67.0,57,74,3,4,82,26,314,1,0,1,0,0,0,865,0,12,0,Replay
60,0,0,0,0,0,-3,67.0,57,74,3,4,82,26,314,0,1,0,1,0,0,866,0,12,0,Replay
60,0,0,0,0,0,-3,67.0,57,74,3,4,82,26,314,1,0,1,0,0,0,867,0,12,0,Replay
60,0,0,0,0,0,-3,67.0,58,74,3,2,81,26,314,0,1,0,1,0,0,868,0,12,0,Replay
60,0,0,0,0,0,-3,67.0,58,74,3,2,81,26,314,1,0,1,0,0,0,869,0,12,0,Replay
60,0,0,0,0,0,-3,67.0,58,74,3,2,81,26,314,0,1,0,1,0,0,870,0,12,0,Replay
60,0,0,0,0,0,-3,67.0,58,74,3,2,81,26,314,0,1,0,1,0,0,872,0,12,0,Replay
60,0,0,0,0,0,-3,67.0,58,74,3,2,81,26,314,1,0,1,0,0,0,873,0,12,0,Replay
60,0,0,0,0,0,-3,67.0,58,74,3,2,81,26,314,0,1,0,1,0,0,874,0,12,0,Replay
60,0,0,0,0,0,-3,67.0,58,74,3,2,81,86,44,1,0,1,0,0,0,202,2,8,0,Replay
60,0,0,0,0,0,-3,67.0,58,74,3,2,81,86,44,1,0,1,0,0,0,203,2,8,0,Replay
60,0,0,0,0,0,-3,67.0,58,74,3,2,81,86,44,1,0,1,0,0,0,204,2,8,0,Replay
60,0,0,0,0,0,-3,67.0,58,74,3,2,81,238,48,0,1,0,1,0,0,771,2,8,176,Replay
60,0,0,0,0,0,-3,67.0,58,74,3,2,81,26,60,1,0,1,0,0,0,0,2,12,0,Replay
60,0,0,0,0,0,-3,67.0,58,74,3,2,81,86,44,1,0,1,0,0,0,205,2,8,0,Replay
60,0,0,0,0,0,-3,67.0,58,74,3,2,81,86,44,1,0,1,0,0,0,206,2,8,0,Replay
60,2,0,0,-8,0,-3,68.0,58,74,3,2,81,86,44,1,0,1,0,0,0,207,2,8,0,Replay
60,2,0,0,-8,0,-3,68.0,58,74,3,2,81,86,44,1,0,1,0,0,0,208,2,8,0,Replay
60,2,0,0,-8,0,-3,68.0,58,74,3,2,81,236,48,0,1,0,1,0,0,772,2,8,174,Replay
60,2,0,0,-8,0,-3,68.0,58,74,3,2,81,236,60,0,1,0,1,0,0,772,2,8,174,Replay
60,2,0,0,-8,0,-3,68.0,58,74,3,2,81,26,60,1,0,1,0,0,0,0,2,12,0,Replay
60,2,0,0,-8,0,-3,68.0,58,74,3,2,81,86,44,1,0,1,0,0,0,209,2,8,0,Replay
60,2,0,0,-8,0,-3,68.0,58,74,3,2,81,86,44,1,0,1,0,0,0,210,2,8,0,Replay
60,2,0,0,-8,0,-3,68.0,58,74,3,2,81,86,44,1,0,1,0,0,0,211,2,8,0,Replay
60,2,0,0,-8,0,-3,68.0,58,74,3,2,81,235,48,0,1,0,1,0,0,773,2,8,173,Replay
60,2,0,0,-8,0,-3,68.0,58,74,3,2,81,235,48,0,1,0,1,0,0,773,2,8,173,Replay
60,2,0,0,-8,0,-3,68.0,58,74,3,2,81,83,60,0,1,0,1,0,0,774,2,8,21,Replay
60,2,0,0,-8,0,-3,68.0,58,74,3,2,81,86,44,1,0,1,0,0,0,212,2,8,0,Replay
60,2,0,0,-8,0,-3,68.0,58,74,3,2,81,86,44,1,0,1,0,0,0,213,2,8,0,Replay
60,2,0,0,0,0,-3,68.0,59,74,31,-6,79,234,48,0,1,0,1,0,0,775,2,8,172,Replay
60,2,0,0,0,0,-3,68.0,59,74,31,-6,79,26,60,1,0,1,0,0,0,0,2,12,0,Replay
60,2,0,0,0,0,-3,68.0,59,74,31,-6,79,86,44,1,0,1,0,0,0,214,2,8,0,Replay
60,2,0,0,0,0,-3,68.0,59,74,31,-6,79,86,44,1,0,1,0,0,0,215,2,8,0,Replay
60,2,0,0,0,0,-3,68.0,59,74,31,-6,79,86,44,1,0,1,0,0,0,216,2,8,0,Replay
60,2,0,0,0,0,-3,68.0,59,74,31,-6,79,26,314,0,1,0,1,0,0,1460,0,12,0,Replay
60,2,0,0,0,0,-3,68.0,59,74,31,-6,79,26,314,1,0,1,0,0,0,1461,0,12,0,Replay
60,2,0,0,0,0,-3,68.0,59,74,31,-6,79,26,314,0,1,0,1,0,0,1462,0,12,0,Replay
60,2,0,0,0,0,-3,68.0,59,74,31,-6,79,26,314,0,1,0,1,0,0,1464,0,12,0,Replay
60,2,0,0,0,0,-3,68.0,59,74,31,-6,79,26,314,1,0,1,0,0,0,1465,0,12,0,Replay
60,2,0,0,0,0,-3,68.0,59,74,31,-6,79,26,314,0,1,0,1,0,0,1466,0,12,0,Replay
60,2,0,0,0,0,-3,68.0,59,74,31,-6,79,26,314,1,0,1,0,0,0,1467,0,12,0,Replay
60,2,0,0,0,0,-3,68.0,59,74,31,-6,79,26,314,0,1,0,1,0,0,1468,0,12,0,Replay
60,2,0,0,-1,0,-3,68.0,60,74,50,-9,76,26,314,1,0,1,0,0,0,1469,0,12,0,Replay
60,2,0,0,-1,0,-3,68.0,60,74,50,-9,76,26,314,0,1,0,1,0,0,1470,0,12,0,Replay
60,2,0,0,-1,0,-3,68.0,60,74,50,-9,76,26,314,1,0,1,0,0,0,1471,0,12,0,Replay
60,2,0,0,-1,0,-3,68.0,60,74,50,-9,76,26,314,0,1,0,1,0,0,1472,0,12,0,Replay
60,2,0,0,-1,0,-3,68.0,60,74,50,-9,76,26,314,1,0,1,0,0,0,1473,0,12,0,Replay
60,2,0,0,-1,0,-3,68.0,60,74,50,-9,76,26,314,0,1,0,1,0,0,1474,0,12,0,Replay
60,2,0,0,-1,0,-3,68.0,60,74,50,-9,76,26,314,1,0,1,0,0,0,1475,0,12,0,Replay
60,2,0,0,-1,0,-3,68.0,60,74,50,-9,76,26,314,0,1,0,1,0,0,1476,0,12,0,Replay
60,2,0,0,-1,0,-3,68.0,60,74,50,-9,76,26,314,1,0,1,0,0,0,1477,0,12,0,Replay
60,2,0,0,-1,0,-3,68.0,60,74,50,-9,76,26,314,0,1,0,1,0,0,1478,0,12,0,Replay
60,2,0,0,-1,0,-3,68.0,60,74,50,-9,76,26,314,1,0,1,0,0,0,1479,0,12,0,Replay
60,2,0,0,-1,0,-3,68.0,60,74,50,-9,76,26,314,0,1,0,1,0,0,1480,0,12,0,Replay
