p_height,p_x_speed,p_y_speed,p_z_speed,p_pitch,p_roll,p_yaw,p_temperature,p_flight_time,p_battery,p_mp_distance_x,p_mp_distance_y,p_mp_distance_z,frame.len,wlan.duration,wlan.ra,wlan.ta,wlan.da,wlan.sa,wlan.bssid,wlan.frag,wlan.seq,wlan.fc.type,wlan.fc.subtype,data.len,label
80,0,0,0,0,0,0,68.0,7,65,-15,-5,86,24,0,1,1,1,1,0,0,24,2,4,0,NORMAL
80,0,0,0,0,0,0,68.0,7,65,-15,-5,86,24,0,1,1,1,1,0,0,26,2,4,0,NORMAL
80,0,0,0,0,0,0,68.0,7,65,-15,-5,86,104,0,4,1,4,1,0,0,49,0,8,0,NORMAL
80,0,0,0,0,0,0,68.0,7,65,-13,-6,86,86,44,1,0,1,0,0,0,14,2,8,0,NORMAL
80,0,0,0,0,0,0,68.0,7,65,-13,-6,86,26,60,1,0,1,0,0,0,0,2,12,0,NORMAL
80,0,0,0,0,0,0,68.0,7,65,-13,-6,86,26,60,1,0,1,0,0,0,0,2,12,0,NORMAL
80,0,0,0,0,0,0,68.0,8,65,-18,-6,85,86,44,1,0,1,0,0,0,16,2,8,0,NORMAL
80,0,0,0,0,0,0,68.0,8,65,-18,-6,85,26,60,1,0,1,0,0,0,0,2,12,0,NORMAL
80,0,0,0,0,0,0,68.0,8,65,-18,-6,85,86,44,1,0,1,0,0,0,17,2,8,0,NORMAL
80,0,0,0,-1,0,0,67.0,8,65,-21,-9,84,225,44,0,1,0,1,0,0,32,2,8,163,NORMAL
80,0,0,0,-1,0,0,67.0,8,65,-21,-9,84,26,60,1,0,1,0,0,0,0,2,12,0,NORMAL
80,0,0,0,-1,0,0,67.0,8,65,-21,-9,84,86,44,1,0,1,0,0,0,73,2,8,0,NORMAL
80,0,0,0,-1,0,0,67.0,9,65,-24,-10,84,225,44,0,1,0,1,0,0,33,2,8,163,NORMAL
80,0,0,0,-1,0,0,67.0,9,65,-24,-10,84,26,60,1,0,1,0,0,0,0,2,12,0,NORMAL
80,0,0,0,-1,0,0,67.0,9,65,-24,-10,84,226,44,0,1,0,1,0,0,34,2,8,164,NORMAL
80,0,0,0,-1,0,0,68.0,9,65,-25,-10,85,26,60,1,0,1,0,0,0,0,2,12,0,NORMAL
80,0,0,0,-1,0,0,68.0,9,65,-25,-10,85,86,44,1,0,1,0,0,0,74,2,8,0,NORMAL
80,0,0,0,-1,0,0,68.0,9,65,-25,-10,85,226,44,0,1,0,1,0,0,35,2,8,164,NORMAL
80,0,0,0,-1,0,0,68.0,10,65,-26,-15,84,26,60,1,0,1,0,0,0,0,2,12,0,NORMAL
80,0,0,0,-1,0,0,68.0,10,65,-26,-15,84,223,44,0,1,0,1,0,0,36,2,8,161,NORMAL
80,0,0,0,-1,0,0,68.0,10,65,-26,-15,84,26,60,1,0,1,0,0,0,0,2,12,0,NORMAL
80,1,0,0,-3,-1,0,68.0,10,65,-25,-11,85,228,44,0,1,0,1,0,0,75,2,8,166,NORMAL
80,1,0,0,-3,-1,0,68.0,10,65,-25,-11,85,26,60,1,0,1,0,0,0,0,2,12,0,NORMAL
80,1,0,0,-3,-1,0,68.0,10,65,-25,-11,85,75,44,0,1,0,1,0,0,76,2,8,13,NORMAL
80,1,0,0,-1,0,0,68.0,11,65,-21,-6,83,227,44,0,1,0,1,0,0,77,2,8,165,NORMAL
80,1,0,0,-1,0,0,68.0,11,65,-21,-6,83,86,44,1,0,1,0,0,0,98,2,8,0,NORMAL
80,1,0,0,-1,0,0,68.0,11,65,-21,-6,83,86,44,1,0,1,0,0,0,98,2,8,0,NORMAL
80,1,0,0,0,0,0,68.0,11,65,-13,-4,82,86,44,1,0,1,0,0,0,98,2,8,0,NORMAL
80,1,0,0,0,0,0,68.0,11,65,-13,-4,82,227,44,0,1,0,1,0,0,78,2,8,165,NORMAL
80,1,0,0,0,0,0,68.0,11,65,-13,-4,82,26,60,1,0,1,0,0,0,0,2,12,0,NORMAL
70,1,0,0,-1,0,0,68.0,12,65,-12,-3,82,228,44,0,1,0,1,0,0,79,2,8,166,NORMAL
70,1,0,0,-1,0,0,68.0,12,65,-12,-3,82,86,44,1,0,1,0,0,0,99,2,8,0,NORMAL
70,1,0,0,-1,0,0,68.0,12,65,-12,-3,82,26,60,1,0,1,0,0,0,0,2,12,0,NORMAL
70,0,0,0,-1,0,0,68.0,12,65,-10,-4,81,74,44,0,1,0,1,0,0,80,2,8,12,NORMAL
70,0,0,0,-1,0,0,68.0,12,65,-10,-4,81,74,44,0,1,0,1,0,0,80,2,8,12,NORMAL
70,0,0,0,-1,0,0,68.0,12,65,-10,-4,81,228,44,0,1,0,1,0,0,81,2,8,166,NORMAL
70,1,0,0,-1,-2,0,68.0,13,65,-7,-4,82,26,60,1,0,1,0,0,0,0,2,12,0,NORMAL
70,1,0,0,-1,-2,0,68.0,13,65,-7,-4,82,98,320,3,1,3,1,0,0,213,0,5,0,NORMAL
70,1,0,0,-1,-2,0,68.0,13,65,-7,-4,82,98,320,3,1,3,1,0,0,215,0,5,0,NORMAL
70,0,0,0,-1,0,0,68.0,13,65,-7,-4,82,98,320,3,1,3,1,0,0,215,0,5,0,NORMAL
70,0,0,0,-1,0,0,68.0,13,65,-7,-4,82,227,44,0,1,0,1,0,0,117,2,8,165,NORMAL
70,0,0,0,-1,0,0,68.0,13,65,-7,-4,82,26,60,1,0,1,0,0,0,0,2,12,0,NORMAL
70,0,0,0,-1,0,0,68.0,14,65,-7,-5,82,86,44,1,0,1,0,0,0,114,2,8,0,NORMAL
70,0,0,0,-1,0,0,68.0,14,65,-7,-5,82,86,44,1,0,1,0,0,0,114,2,8,0,NORMAL
70,0,0,0,-1,0,0,68.0,14,65,-7,-5,82,227,44,0,1,0,1,0,0,118,2,8,165,NORMAL
80,0,0,0,-1,-1,0,68.0,14,65,-10,-9,83,26,60,1,0,1,0,0,0,0,2,12,0,NORMAL
80,0,0,0,-1,-1,0,68.0,14,65,-10,-9,83,229,44,0,1,0,1,0,0,119,2,8,167,NORMAL
80,0,0,0,-1,-1,0,68.0,14,65,-10,-9,83,26,60,1,0,1,0,0,0,0,2,12,0,NORMAL
80,0,0,0,-1,0,0,68.0,15,65,-19,-13,82,86,44,1,0,1,0,0,0,115,2,8,0,NORMAL
80,0,0,0,-1,0,0,68.0,15,65,-19,-13,82,231,44,0,1,0,1,0,0,120,2,8,169,NORMAL
80,0,0,0,-1,0,0,68.0,15,65,-19,-13,82,26,60,1,0,1,0,0,0,0,2,12,0,NORMAL
80,0,0,0,-1,0,0,68.0,15,65,-24,-18,81,227,44,0,1,0,1,0,0,121,2,8,165,NORMAL
80,0,0,0,-1,0,0,68.0,15,65,-24,-18,81,26,60,1,0,1,0,0,0,0,2,12,0,NORMAL
80,0,0,0,-1,0,0,68.0,15,65,-24,-18,81,229,44,0,1,0,1,0,0,158,2,8,167,NORMAL
80,3,0,0,-8,0,0,68.0,16,65,-22,-17,83,26,60,1,0,1,0,0,0,0,2,12,0,NORMAL
80,3,0,0,-8,0,0,68.0,16,65,-22,-17,83,232,44,0,1,0,1,0,0,159,2,8,170,NORMAL
80,3,0,0,-8,0,0,68.0,16,65,-22,-17,83,26,60,1,0,1,0,0,0,0,2,12,0,NORMAL
80,2,0,0,0,0,0,68.0,16,65,-10,-16,85,231,44,0,1,0,1,0,0,160,2,8,169,NORMAL
80,2,0,0,0,0,0,68.0,16,65,-10,-16,85,26,60,1,0,1,0,0,0,0,2,12,0,NORMAL
80,2,0,0,0,0,0,68.0,16,65,-10,-16,85,230,44,0,1,0,1,0,0,161,2,8,168,NORMAL
80,2,0,0,-1,0,0,69.0,17,65,1,-19,87,26,60,1,0,1,0,0,0,0,2,12,0,NORMAL
80,2,0,0,-1,0,0,69.0,17,65,1,-19,87,228,44,0,1,0,1,0,0,162,2,8,166,NORMAL
80,2,0,0,-1,0,0,69.0,17,65,1,-19,87,26,60,1,0,1,0,0,0,0,2,12,0,NORMAL
80,2,0,0,-1,0,0,69.0,18,65,12,-22,89,26,60,1,0,1,0,0,0,0,2,12,0,NORMAL
80,2,0,0,-1,0,0,69.0,18,65,12,-22,89,230,320,0,1,0,1,0,0,196,2,8,168,NORMAL
80,2,0,0,-1,0,0,69.0,18,65,12,-22,89,26,60,1,0,1,0,0,0,0,2,12,0,NORMAL
80,2,0,0,-1,0,0,68.0,18,65,20,-27,88,72,44,1,0,1,0,0,0,142,2,8,10,NORMAL
80,2,0,0,-1,0,0,68.0,18,65,20,-27,88,86,44,1,0,1,0,0,0,143,2,8,0,NORMAL
80,2,0,0,-1,0,0,68.0,18,65,20,-27,88,231,44,0,1,0,1,0,0,201,2,8,169,NORMAL
80,2,0,0,-1,0,0,68.0,19,65,23,-23,92,26,60,1,0,1,0,0,0,0,2,12,0,NORMAL
80,2,0,0,-1,0,0,68.0,19,65,23,-23,92,231,44,0,1,0,1,0,0,202,2,8,169,NORMAL
80,2,0,0,-1,0,0,68.0,19,65,23,-23,92,26,60,1,0,1,0,0,0,0,2,12,0,NORMAL
80,2,0,0,-1,0,0,68.0,19,65,30,-15,95,229,44,0,1,0,1,0,0,203,2,8,167,NORMAL
80,2,0,0,-1,0,0,68.0,19,65,30,-15,95,232,44,0,1,0,1,0,0,204,2,8,170,NORMAL
80,2,0,0,-1,0,0,68.0,19,65,30,-15,95,26,60,1,0,1,0,0,0,0,2,12,0,NORMAL
80,1,0,0,-1,1,0,68.0,20,65,41,-11,92,75,44,0,1,0,1,0,0,205,2,8,13,NORMAL
80,1,0,0,-1,1,0,68.0,20,65,41,-11,92,230,44,0,1,0,1,0,0,206,2,8,168,NORMAL
80,1,0,0,-1,1,0,68.0,20,65,41,-11,92,230,320,0,1,0,1,0,0,211,2,8,168,NORMAL
80,0,0,0,0,-3,0,68.0,20,65,47,14,82,230,320,0,1,0,1,0,0,211,2,8,168,NORMAL
80,0,0,0,0,-3,0,68.0,20,65,47,14,82,26,60,1,0,1,0,0,0,0,2,12,0,NORMAL
80,0,0,0,0,-3,0,68.0,20,65,47,14,82,230,44,0,1,0,1,0,0,241,2,8,168,NORMAL
80,0,0,0,-4,0,0,68.0,21,65,48,11,81,86,44,1,0,1,0,0,0,152,2,8,0,NORMAL
80,0,0,0,-4,0,0,68.0,21,65,48,11,81,26,60,1,0,1,0,0,0,0,2,12,0,NORMAL
80,0,0,0,-4,0,0,68.0,21,65,48,11,81,74,44,0,1,0,1,0,0,242,2,8,12,NORMAL
80,0,0,0,2,0,0,67.0,21,65,47,12,83,231,44,0,1,0,1,0,0,243,2,8,169,NORMAL
80,0,0,0,2,0,0,67.0,21,65,47,12,83,26,60,1,0,1,0,0,0,0,2,12,0,NORMAL
80,0,0,0,2,0,0,67.0,21,65,47,12,83,229,44,0,1,0,1,0,0,244,2,8,167,NORMAL
80,0,0,0,-1,0,0,67.0,22,65,48,15,80,86,44,1,0,1,0,0,0,153,2,8,0,NORMAL
80,0,0,0,-1,0,0,67.0,22,65,48,15,80,26,60,1,0,1,0,0,0,0,2,12,0,NORMAL
80,0,0,0,-1,0,0,67.0,22,65,48,15,80,231,44,0,1,0,1,0,0,245,2,8,169,NORMAL
70,-2,-1,0,4,-4,0,68.0,22,65,53,21,80,26,60,1,0,1,0,0,0,0,2,12,0,NORMAL
70,-2,-1,0,4,-4,0,68.0,22,65,53,21,80,229,44,0,1,0,1,0,0,246,2,8,167,NORMAL
70,-2,-1,0,4,-4,0,68.0,22,65,53,21,80,233,44,0,1,0,1,0,0,282,2,8,171,NORMAL
70,-3,-3,0,-1,0,0,68.0,23,65,19,-20,87,26,60,1,0,1,0,0,0,0,2,12,0,NORMAL
70,-3,-3,0,-1,0,0,68.0,23,65,19,-20,87,86,44,1,0,1,0,0,0,161,2,8,0,NORMAL
70,-3,-3,0,-1,0,0,68.0,23,65,19,-20,87,233,44,0,1,0,1,0,0,283,2,8,171,NORMAL
70,-2,-2,0,-2,0,0,68.0,23,65,2,-10,84,26,60,1,0,1,0,0,0,0,2,12,0,NORMAL
70,-2,-2,0,-2,0,0,68.0,23,65,2,-10,84,230,44,0,1,0,1,0,0,284,2,8,168,NORMAL
70,-2,-2,0,-2,0,0,68.0,23,65,2,-10,84,26,60,1,0,1,0,0,0,0,2,12,0,NORMAL
70,0,-1,0,-1,0,0,68.0,24,65,-8,-7,82,86,44,1,0,1,0,0,0,162,2,8,0,NORMAL
70,0,-1,0,-1,0,0,68.0,24,65,-8,-7,82,75,44,0,1,0,1,0,0,285,2,8,13,NORMAL
70,0,-1,0,-1,0,0,68.0,24,65,-8,-7,82,232,44,0,1,0,1,0,0,286,2,8,170,NORMAL
70,0,0,0,-3,0,0,69.0,24,65,-11,-5,81,26,60,1,0,1,0,0,0,0,2,12,0,NORMAL
70,0,0,0,-3,0,0,69.0,24,65,-11,-5,81,232,44,0,1,0,1,0,0,287,2,8,170,NORMAL
70,0,0,0,-3,0,0,69.0,24,65,-11,-5,81,26,60,1,0,1,0,0,0,0,2,12,0,NORMAL
70,0,0,0,0,0,0,69.0,25,65,-9,-2,81,229,44,0,1,0,1,0,0,326,2,8,167,NORMAL
70,0,0,0,0,0,0,69.0,25,65,-9,-2,81,26,60,1,0,1,0,0,0,0,2,12,0,NORMAL
70,0,0,0,0,0,0,69.0,25,65,-9,-2,81,230,44,0,1,0,1,0,0,327,2,8,168,NORMAL
70,0,0,0,0,0,0,68.0,25,65,-7,-4,82,26,60,1,0,1,0,0,0,0,2,12,0,NORMAL
70,0,0,0,0,0,0,68.0,25,65,-7,-4,82,230,44,0,1,0,1,0,0,328,2,8,168,NORMAL
70,0,0,0,0,0,0,68.0,25,65,-7,-4,82,26,60,1,0,1,0,0,0,0,2,12,0,NORMAL
80,0,0,0,0,0,0,68.0,26,65,-8,-4,83,228,44,0,1,0,1,0,0,329,2,8,166,NORMAL
80,0,0,0,0,0,0,68.0,26,65,-8,-4,83,228,44,0,1,0,1,0,0,329,2,8,166,NORMAL
80,0,0,0,0,0,0,68.0,26,65,-8,-4,83,26,60,1,0,1,0,0,0,0,2,12,0,NORMAL
80,4,0,0,0,0,0,67.0,27,65,5,-12,84,228,44,0,1,0,1,0,0,330,2,8,166,NORMAL
80,4,0,0,0,0,0,67.0,27,65,5,-12,84,228,44,0,1,0,1,0,0,330,2,8,166,NORMAL
80,4,0,0,0,0,0,67.0,27,65,5,-12,84,98,320,3,1,3,1,0,0,425,0,5,0,NORMAL
70,2,0,0,-1,-1,0,67.0,27,65,22,-21,82,98,320,3,1,3,1,0,0,425,0,5,0,NORMAL
70,2,0,0,-1,-1,0,67.0,27,65,22,-21,82,98,320,3,1,3,1,0,0,427,0,5,0,NORMAL
70,2,0,0,-1,-1,0,67.0,27,65,22,-21,82,230,320,0,1,0,1,0,0,361,2,8,168,NORMAL
80,2,0,0,-1,-1,0,67.0,28,65,34,-22,85,230,44,0,1,0,1,0,0,367,2,8,168,NORMAL
80,2,0,0,-1,-1,0,67.0,28,65,34,-22,85,26,60,1,0,1,0,0,0,0,2,12,0,NORMAL
80,2,0,0,-1,-1,0,67.0,28,65,34,-22,85,233,44,0,1,0,1,0,0,368,2,8,171,NORMAL
80,2,0,0,-1,-1,0,67.0,28,65,47,-17,85,26,60,1,0,1,0,0,0,0,2,12,0,NORMAL
80,2,0,0,-1,-1,0,67.0,28,65,47,-17,85,75,44,0,1,0,1,0,0,369,2,8,13,NORMAL
80,2,0,0,-1,-1,0,67.0,28,65,47,-17,85,231,44,0,1,0,1,0,0,370,2,8,169,NORMAL
70,2,-1,0,-1,-1,0,68.0,29,65,39,11,80,26,60,1,0,1,0,0,0,0,2,12,0,NORMAL
70,2,-1,0,-1,-1,0,68.0,29,65,39,11,80,231,44,0,1,0,1,0,0,371,2,8,169,NORMAL
70,2,-1,0,-1,-1,0,68.0,29,65,39,11,80,26,60,1,0,1,0,0,0,0,2,12,0,NORMAL
80,1,-1,0,2,-1,0,68.0,29,65,34,8,78,230,44,0,1,0,1,0,0,372,2,8,168,NORMAL
80,1,-1,0,2,-1,0,68.0,29,65,34,8,78,26,60,1,0,1,0,0,0,0,2,12,0,NORMAL
80,1,-1,0,2,-1,0,68.0,29,65,34,8,78,86,44,1,0,1,0,0,0,192,2,8,0,NORMAL
80,0,0,0,0,0,0,68.0,30,65,29,4,79,86,44,1,0,1,0,0,0,192,2,8,0,NORMAL
80,0,0,0,0,0,0,68.0,30,65,29,4,79,86,44,1,0,1,0,0,0,192,2,8,0,NORMAL
80,0,0,0,0,0,0,68.0,30,65,29,4,79,228,44,0,1,0,1,0,0,410,2,8,166,NORMAL
80,2,0,0,-1,0,0,67.0,30,65,29,7,79,26,60,1,0,1,0,0,0,0,2,12,0,NORMAL
80,2,0,0,-1,0,0,67.0,30,65,29,7,79,229,44,0,1,0,1,0,0,411,2,8,167,NORMAL
80,2,0,0,-1,0,0,67.0,30,65,29,7,79,86,44,1,0,1,0,0,0,193,2,8,0,NORMAL
80,1,0,0,0,0,0,67.0,31,65,17,9,81,229,44,0,1,0,1,0,0,412,2,8,167,NORMAL
80,1,0,0,0,0,0,67.0,31,65,17,9,81,26,60,1,0,1,0,0,0,0,2,12,0,NORMAL
80,1,0,0,0,0,0,67.0,31,65,17,9,81,231,44,0,1,0,1,0,0,413,2,8,169,NORMAL
80,1,0,0,0,0,0,67.0,31,65,4,7,83,231,44,0,1,0,1,0,0,413,2,8,169,NORMAL
80,1,0,0,0,0,0,67.0,31,65,4,7,83,231,44,0,1,0,1,0,0,413,2,8,169,NORMAL
80,1,0,0,0,0,0,67.0,31,65,4,7,83,231,44,0,1,0,1,0,0,413,2,8,169,NORMAL
80,0,0,0,0,-1,0,67.0,32,65,0,8,82,231,44,0,1,0,1,0,0,413,2,8,169,NORMAL
80,0,0,0,0,-1,0,67.0,32,65,0,8,82,231,44,0,1,0,1,0,0,413,2,8,169,NORMAL
80,0,0,0,0,-1,0,67.0,32,65,0,8,82,231,320,0,1,0,1,0,0,413,2,8,169,NORMAL
70,0,0,0,0,0,0,68.0,32,65,0,7,81,26,60,1,0,1,0,0,0,0,2,12,0,NORMAL
70,0,0,0,0,0,0,68.0,32,65,0,7,81,231,320,0,1,0,1,0,0,413,2,8,169,NORMAL
70,0,0,0,0,0,0,68.0,32,65,0,7,81,62,44,1,0,1,0,0,0,194,2,8,0,NORMAL
70,0,0,0,0,0,0,68.0,33,65,1,6,81,62,44,0,1,0,1,0,0,414,2,8,0,NORMAL
70,0,0,0,0,0,0,68.0,33,65,1,6,81,72,44,1,0,1,0,0,0,195,2,8,10,NORMAL
70,0,0,0,0,0,0,68.0,33,65,1,6,81,230,44,0,1,0,1,0,0,415,2,8,168,NORMAL
70,0,0,0,0,-1,0,68.0,33,65,3,8,81,26,60,1,0,1,0,0,0,0,2,12,0,NORMAL
70,0,0,0,0,-1,0,68.0,33,65,3,8,81,230,44,0,1,0,1,0,0,452,2,8,168,NORMAL
70,0,0,0,0,-1,0,68.0,33,65,3,8,81,75,44,0,1,0,1,0,0,453,2,8,13,NORMAL
70,0,0,0,-1,-1,0,68.0,34,65,6,14,80,26,60,1,0,1,0,0,0,0,2,12,0,NORMAL
70,0,0,0,-1,-1,0,68.0,34,65,6,14,80,231,44,0,1,0,1,0,0,454,2,8,169,NORMAL
70,0,0,0,-1,-1,0,68.0,34,65,6,14,80,26,60,1,0,1,0,0,0,0,2,12,0,NORMAL
70,4,0,0,0,0,0,67.0,34,65,6,17,79,232,44,0,1,0,1,0,0,455,2,8,170,NORMAL
70,4,0,0,0,0,0,67.0,34,65,6,17,79,74,44,0,1,0,1,0,0,456,2,8,12,NORMAL
70,4,0,0,0,0,0,67.0,34,65,6,17,79,26,60,1,0,1,0,0,0,0,2,12,0,NORMAL
70,2,0,0,-1,-1,0,67.0,35,65,-16,25,77,231,44,0,1,0,1,0,0,457,2,8,169,NORMAL
70,2,0,0,-1,-1,0,67.0,35,65,-16,25,77,26,60,1,0,1,0,0,0,0,2,12,0,NORMAL
70,2,0,0,-1,-1,0,67.0,35,65,-16,25,77,231,44,0,1,0,1,0,0,458,2,8,169,NORMAL
70,2,0,0,-1,0,0,68.0,35,65,-23,27,79,26,60,1,0,1,0,0,0,0,2,12,0,NORMAL
70,2,0,0,-1,0,0,68.0,35,65,-23,27,79,26,60,1,0,1,0,0,0,0,2,12,0,NORMAL
70,2,0,0,-1,0,0,68.0,35,65,-23,27,79,229,44,0,1,0,1,0,0,496,2,8,167,NORMAL
70,2,0,0,-2,0,0,68.0,36,65,-34,27,79,26,60,1,0,1,0,0,0,0,2,12,0,NORMAL
70,2,0,0,-2,0,0,68.0,36,65,-34,27,79,228,44,0,1,0,1,0,0,497,2,8,166,NORMAL
70,2,0,0,-2,0,0,68.0,36,65,-34,27,79,26,60,1,0,1,0,0,0,0,2,12,0,NORMAL
70,2,0,0,-2,-1,0,68.0,37,65,-45,40,69,229,44,0,1,0,1,0,0,498,2,8,167,NORMAL
70,2,0,0,-2,-1,0,68.0,37,65,-45,40,69,230,44,0,1,0,1,0,0,499,2,8,168,NORMAL
70,2,0,0,-2,-1,0,68.0,37,65,-45,40,69,232,44,0,1,0,1,0,0,500,2,8,170,NORMAL
70,2,-1,0,-1,-1,0,68.0,37,65,-25,-22,82,232,44,0,1,0,1,0,0,500,2,8,170,NORMAL
70,2,-1,0,-1,-1,0,68.0,37,65,-25,-22,82,232,44,0,1,0,1,0,0,500,2,8,170,NORMAL
70,2,-1,0,-1,-1,0,68.0,37,65,-25,-22,82,26,60,1,0,1,0,0,0,0,2,12,0,NORMAL
70,0,0,0,1,0,0,68.0,38,65,-21,-26,78,232,44,0,1,0,1,0,0,539,2,8,170,NORMAL
70,0,0,0,1,0,0,68.0,38,65,-21,-26,78,233,44,0,1,0,1,0,0,540,2,8,171,NORMAL
70,0,0,0,1,0,0,68.0,38,65,-21,-26,78,232,44,0,1,0,1,0,0,541,2,8,170,NORMAL
80,0,0,0,-4,-5,0,68.0,38,65,-17,-29,79,26,60,1,0,1,0,0,0,0,2,12,0,NORMAL
80,0,0,0,-4,-5,0,68.0,38,65,-17,-29,79,233,44,0,1,0,1,0,0,542,2,8,171,NORMAL
80,0,0,0,-4,-5,0,68.0,38,65,-17,-29,79,233,44,0,1,0,1,0,0,542,2,8,171,NORMAL
80,1,-2,0,-1,0,0,68.0,39,65,-16,-24,79,26,60,1,0,1,0,0,0,0,2,12,0,NORMAL
80,1,-2,0,-1,0,0,68.0,39,65,-16,-24,79,86,44,1,0,1,0,0,0,232,2,8,0,NORMAL
80,1,-2,0,-1,0,0,68.0,39,65,-16,-24,79,231,44,0,1,0,1,0,0,543,2,8,169,NORMAL
70,1,-1,0,-1,0,0,68.0,39,65,-10,-14,80,231,44,0,1,0,1,0,0,579,2,8,169,NORMAL
70,1,-1,0,-1,0,0,68.0,39,65,-10,-14,80,26,60,1,0,1,0,0,0,0,2,12,0,NORMAL
70,1,-1,0,-1,0,0,68.0,39,65,-10,-14,80,232,44,0,1,0,1,0,0,580,2,8,170,NORMAL
70,1,-1,0,-1,0,0,68.0,40,65,-4,-6,80,231,44,0,1,0,1,0,0,581,2,8,169,NORMAL
70,1,-1,0,-1,0,0,68.0,40,65,-4,-6,80,26,60,1,0,1,0,0,0,0,2,12,0,NORMAL
70,1,-1,0,-1,0,0,68.0,40,65,-4,-6,80,230,44,0,1,0,1,0,0,582,2,8,168,NORMAL
70,0,0,0,0,1,0,68.0,40,65,-3,-3,79,26,60,1,0,1,0,0,0,0,2,12,0,NORMAL
70,0,0,0,0,1,0,68.0,40,65,-3,-3,79,86,44,1,0,1,0,0,0,245,2,8,0,NORMAL
70,0,0,0,0,1,0,68.0,40,65,-3,-3,79,64,44,0,1,0,1,0,0,583,2,8,2,NORMAL
70,0,0,0,0,0,19,68.0,41,65,-3,-4,79,231,44,0,1,0,1,0,0,585,2,8,169,NORMAL
70,0,0,0,0,0,19,68.0,41,65,-3,-4,79,26,60,1,0,1,0,0,0,0,2,12,0,NORMAL
70,0,0,0,0,0,19,68.0,41,65,-3,-4,79,77,44,1,0,1,0,0,0,246,2,8,15,NORMAL
70,0,0,0,0,-1,55,68.0,41,65,-2,-8,78,98,320,2,1,2,1,0,0,666,0,5,0,NORMAL
70,0,0,0,0,-1,55,68.0,41,65,-2,-8,78,98,320,2,1,2,1,0,0,666,0,5,0,NORMAL
70,0,0,0,0,-1,55,68.0,41,65,-2,-8,78,98,320,2,1,2,1,0,0,666,0,5,0,NORMAL
70,0,0,0,0,0,85,68.0,42,65,-2,-10,78,231,44,0,1,0,1,0,0,623,2,8,169,NORMAL
70,0,0,0,0,0,85,68.0,42,65,-2,-10,78,232,44,0,1,0,1,0,0,624,2,8,170,NORMAL
70,0,0,0,0,0,85,68.0,42,65,-2,-10,78,98,320,3,1,3,1,0,0,668,0,5,0,NORMAL
70,0,0,0,0,0,121,68.0,42,65,-2,-14,78,233,44,0,1,0,1,0,0,625,2,8,171,NORMAL
70,0,0,0,0,0,121,68.0,42,65,-2,-14,78,98,320,3,1,3,1,0,0,670,0,5,0,NORMAL
70,0,0,0,0,0,121,68.0,42,65,-2,-14,78,98,320,3,1,3,1,0,0,670,0,5,0,NORMAL
70,0,0,0,0,0,151,68.0,43,65,0,-15,80,26,60,1,0,1,0,0,0,0,2,12,0,NORMAL
70,0,0,0,0,0,151,68.0,43,65,0,-15,80,232,44,0,1,0,1,0,0,626,2,8,170,NORMAL
70,0,0,0,0,0,151,68.0,43,65,0,-15,80,232,44,0,1,0,1,0,0,626,2,8,170,NORMAL
70,0,0,0,0,0,172,68.0,43,65,-2,-19,78,98,320,3,1,3,1,0,0,672,0,5,0,NORMAL
70,0,0,0,0,0,172,68.0,43,65,-2,-19,78,98,320,3,1,3,1,0,0,672,0,5,0,NORMAL
70,0,0,0,0,0,172,68.0,43,65,-2,-19,78,26,60,1,0,1,0,0,0,0,2,12,0,NORMAL
70,0,0,0,0,0,178,68.0,44,65,-4,-17,77,86,44,1,0,1,0,0,0,256,2,8,0,NORMAL
70,0,0,0,0,0,178,68.0,44,65,-4,-17,77,232,44,0,1,0,1,0,0,628,2,8,170,NORMAL
70,0,0,0,0,0,178,68.0,44,65,-4,-17,77,232,44,0,1,0,1,0,0,628,2,8,170,NORMAL
70,0,0,0,0,0,178,68.0,45,65,-4,-13,77,232,44,0,1,0,1,0,0,628,2,8,170,NORMAL
70,0,0,0,0,0,178,68.0,45,65,-4,-13,77,232,44,0,1,0,1,0,0,628,2,8,170,NORMAL
70,0,0,0,0,0,178,68.0,45,65,-4,-13,77,232,44,0,1,0,1,0,0,628,2,8,170,NORMAL
70,0,0,0,0,0,178,68.0,45,65,-3,-12,78,232,44,0,1,0,1,0,0,628,2,8,170,NORMAL
70,0,0,0,0,0,178,68.0,45,65,-3,-12,78,232,320,0,1,0,1,0,0,628,2,8,170,NORMAL
70,0,0,0,0,0,178,68.0,45,65,-3,-12,78,26,60,1,0,1,0,0,0,0,2,12,0,NORMAL
70,-4,0,0,-4,0,178,68.0,46,65,-9,-13,78,228,44,0,1,0,1,0,0,665,2,8,166,NORMAL
70,-4,0,0,-4,0,178,68.0,46,65,-9,-13,78,26,60,1,0,1,0,0,0,0,2,12,0,NORMAL
70,-4,0,0,-4,0,178,68.0,46,65,-9,-13,78,231,44,0,1,0,1,0,0,666,2,8,169,NORMAL
70,-2,0,0,0,0,178,68.0,46,65,-31,-9,79,86,44,1,0,1,0,0,0,264,2,8,0,NORMAL
70,-2,0,0,0,0,178,68.0,46,65,-31,-9,79,26,60,1,0,1,0,0,0,0,2,12,0,NORMAL
70,-2,0,0,0,0,178,68.0,46,65,-31,-9,79,230,44,0,1,0,1,0,0,667,2,8,168,NORMAL
70,-2,0,0,0,0,178,68.0,47,65,-39,-8,82,75,44,0,1,0,1,0,0,668,2,8,13,NORMAL
70,-2,0,0,0,0,178,68.0,47,65,-39,-8,82,230,44,0,1,0,1,0,0,669,2,8,168,NORMAL
70,-2,0,0,0,0,178,68.0,47,65,-39,-8,82,86,44,1,0,1,0,0,0,265,2,8,0,NORMAL
70,-2,0,0,-1,0,178,68.0,47,65,-30,26,75,74,44,0,1,0,1,0,0,670,2,8,12,NORMAL
70,-2,0,0,-1,0,178,68.0,47,65,-30,26,75,26,60,1,0,1,0,0,0,0,2,12,0,NORMAL
70,-2,0,0,-1,0,178,68.0,47,65,-30,26,75,231,44,0,1,0,1,0,0,671,2,8,169,NORMAL
70,-2,0,0,0,0,178,68.0,48,65,-14,22,77,26,60,1,0,1,0,0,0,0,2,12,0,NORMAL
70,-2,0,0,0,0,178,68.0,48,65,-14,22,77,86,44,1,0,1,0,0,0,277,2,8,0,NORMAL
70,-2,0,0,0,0,178,68.0,48,65,-14,22,77,233,44,0,1,0,1,0,0,707,2,8,171,NORMAL
70,0,0,0,0,0,178,68.0,48,65,-3,12,80,26,60,1,0,1,0,0,0,0,2,12,0,NORMAL
70,0,0,0,0,0,178,68.0,48,65,-3,12,80,26,60,1,0,1,0,0,0,0,2,12,0,NORMAL
70,0,0,0,0,0,178,68.0,48,65,-3,12,80,233,44,0,1,0,1,0,0,709,2,8,171,NORMAL
70,0,-1,0,0,0,178,68.0,49,65,4,9,80,234,44,0,1,0,1,0,0,710,2,8,172,NORMAL
70,0,-1,0,0,0,178,68.0,49,65,4,9,80,26,60,1,0,1,0,0,0,0,2,12,0,NORMAL
70,0,-1,0,0,0,178,68.0,49,65,4,9,80,231,44,0,1,0,1,0,0,750,2,8,169,NORMAL
80,0,0,0,0,-1,178,68.0,49,65,3,5,81,26,60,1,0,1,0,0,0,0,2,12,0,NORMAL
80,0,0,0,0,-1,178,68.0,49,65,3,5,81,86,44,1,0,1,0,0,0,288,2,8,0,NORMAL
80,0,0,0,0,-1,178,68.0,49,65,3,5,81,26,60,1,0,1,0,0,0,0,2,12,0,NORMAL
80,0,0,0,0,0,178,68.0,50,65,3,3,82,98,320,0,1,0,1,0,0,781,0,5,0,NORMAL
80,0,0,0,0,0,178,68.0,50,65,3,3,82,98,320,0,1,0,1,0,0,781,0,5,0,NORMAL
80,0,0,0,0,0,178,68.0,50,65,3,3,82,98,320,0,1,0,1,0,0,782,0,5,0,NORMAL
80,0,0,0,0,0,178,68.0,50,65,3,3,82,75,44,0,1,0,1,0,0,751,2,8,13,NORMAL
80,0,0,0,0,0,178,68.0,50,65,3,3,82,232,44,0,1,0,1,0,0,752,2,8,170,NORMAL
80,0,0,0,0,0,178,68.0,50,65,3,3,82,26,60,1,0,1,0,0,0,0,2,12,0,NORMAL
80,-4,0,0,1,0,178,67.0,51,65,14,0,82,228,44,0,1,0,1,0,0,753,2,8,166,NORMAL
80,-4,0,0,1,0,178,67.0,51,65,14,0,82,26,60,1,0,1,0,0,0,0,2,12,0,NORMAL
80,-4,0,0,1,0,178,67.0,51,65,14,0,82,86,44,1,0,1,0,0,0,289,2,8,0,NORMAL
80,-2,0,0,-1,0,178,68.0,51,65,35,-1,79,26,60,1,0,1,0,0,0,0,2,12,0,NORMAL
80,-2,0,0,-1,0,178,68.0,51,65,35,-1,79,26,60,1,0,1,0,0,0,0,2,12,0,NORMAL
80,-2,0,0,-1,0,178,68.0,51,65,35,-1,79,228,44,0,1,0,1,0,0,754,2,8,166,NORMAL
80,-2,0,0,-1,0,178,68.0,52,65,47,-6,77,26,60,1,0,1,0,0,0,0,2,12,0,NORMAL
80,-2,0,0,-1,0,178,68.0,52,65,47,-6,77,26,60,1,0,1,0,0,0,0,2,12,0,NORMAL
80,-2,0,0,-1,0,178,68.0,52,65,47,-6,77,26,60,1,0,1,0,0,0,0,2,12,0,NORMAL
80,-2,0,0,0,0,178,68.0,52,65,34,0,85,229,44,0,1,0,1,0,0,755,2,8,167,NORMAL
80,-2,0,0,0,0,178,68.0,52,65,34,0,85,86,44,1,0,1,0,0,0,290,2,8,0,NORMAL
80,-2,0,0,0,0,178,68.0,52,65,34,0,85,232,44,0,1,0,1,0,0,792,2,8,170,NORMAL
80,-1,0,0,0,-3,178,68.0,53,65,24,-5,82,66,44,1,0,1,0,0,0,296,2,8,4,NORMAL
80,-1,0,0,0,-3,178,68.0,53,65,24,-5,82,66,44,1,0,1,0,0,0,296,2,8,4,NORMAL
80,-1,0,0,0,-3,178,68.0,53,65,24,-5,82,86,44,1,0,1,0,0,0,297,2,8,0,NORMAL
80,0,0,0,0,0,178,68.0,54,65,12,-6,83,26,60,1,0,1,0,0,0,0,2,12,0,NORMAL
80,0,0,0,0,0,178,68.0,54,65,12,-6,83,64,44,0,1,0,1,0,0,793,2,8,2,NORMAL
80,0,0,0,0,0,178,68.0,54,65,12,-6,83,236,44,0,1,0,1,0,0,794,2,8,174,NORMAL
80,-1,0,0,-1,0,178,68.0,54,65,14,-8,82,26,60,1,0,1,0,0,0,0,2,12,0,NORMAL
80,-1,0,0,-1,0,178,68.0,54,65,14,-8,82,237,44,0,1,0,1,0,0,795,2,8,175,NORMAL
80,-1,0,0,-1,0,178,68.0,54,65,14,-8,82,86,44,1,0,1,0,0,0,298,2,8,0,NORMAL
80,0,0,0,0,0,178,67.0,55,65,1,0,83,26,60,1,0,1,0,0,0,0,2,12,0,NORMAL
80,0,0,0,0,0,178,67.0,55,65,1,0,83,66,44,1,0,1,0,0,0,299,2,8,4,NORMAL
80,0,0,0,0,0,178,67.0,55,65,1,0,83,237,44,0,1,0,1,0,0,796,2,8,175,NORMAL
70,0,0,0,0,0,178,67.0,55,64,0,0,82,26,60,1,0,1,0,0,0,0,2,12,0,NORMAL
70,0,0,0,0,0,178,67.0,55,64,0,0,82,237,44,0,1,0,1,0,0,797,2,8,175,NORMAL
70,0,0,0,0,0,178,67.0,55,64,0,0,82,26,60,1,0,1,0,0,0,0,2,12,0,NORMAL
70,0,0,0,0,0,178,68.0,56,64,1,0,82,86,44,1,0,1,0,0,0,300,2,8,0,NORMAL
70,0,0,0,0,0,178,68.0,56,64,1,0,82,75,44,0,1,0,1,0,0,833,2,8,13,NORMAL
70,0,0,0,0,0,178,68.0,56,64,1,0,82,237,44,0,1,0,1,0,0,834,2,8,175,NORMAL
70,-4,0,0,-3,0,178,68.0,56,64,6,-1,81,26,60,1,0,1,0,0,0,0,2,12,0,NORMAL
70,-4,0,0,-3,0,178,68.0,56,64,6,-1,81,74,44,0,1,0,1,0,0,835,2,8,12,NORMAL
70,-4,0,0,-3,0,178,68.0,56,64,6,-1,81,238,44,0,1,0,1,0,0,836,2,8,176,NORMAL
80,-2,0,0,0,0,178,68.0,57,64,-11,-3,81,26,60,1,0,1,0,0,0,0,2,12,0,NORMAL
80,-2,0,0,0,0,178,68.0,57,64,-11,-3,81,64,44,0,1,0,1,0,0,837,2,8,2,NORMAL
80,-2,0,0,0,0,178,68.0,57,64,-11,-3,81,237,44,0,1,0,1,0,0,838,2,8,175,NORMAL
80,-2,0,0,-1,0,178,68.0,57,64,-22,-2,81,237,44,0,1,0,1,0,0,839,2,8,175,NORMAL
80,-2,0,0,-1,0,178,68.0,57,64,-22,-2,81,26,60,1,0,1,0,0,0,0,2,12,0,NORMAL
80,-2,0,0,-1,0,178,68.0,57,64,-22,-2,81,237,44,0,1,0,1,0,0,840,2,8,175,NORMAL
70,-2,0,0,-1,0,178,68.0,58,64,-39,-2,76,237,44,0,1,0,1,0,0,877,2,8,175,NORMAL
70,-2,0,0,-1,0,178,68.0,58,64,-39,-2,76,26,60,1,0,1,0,0,0,0,2,12,0,NORMAL
70,-2,0,0,-1,0,178,68.0,58,64,-39,-2,76,98,320,3,1,3,1,0,0,890,0,5,0,NORMAL
70,-2,0,0,0,0,178,68.0,58,64,-47,4,78,98,320,3,1,3,1,0,0,891,0,5,0,NORMAL
70,-2,0,0,0,0,178,68.0,58,64,-47,4,78,237,44,0,1,0,1,0,0,878,2,8,175,NORMAL
70,-2,0,0,0,0,178,68.0,58,64,-47,4,78,26,60,1,0,1,0,0,0,0,2,12,0,NORMAL
70,-1,0,0,0,0,178,68.0,59,64,-54,-4,74,98,320,3,1,3,1,0,0,893,0,5,0,NORMAL
70,-1,0,0,0,0,178,68.0,59,64,-54,-4,74,98,320,3,1,3,1,0,0,893,0,5,0,NORMAL
70,-1,0,0,0,0,178,68.0,59,64,-54,-4,74,237,44,0,1,0,1,0,0,879,2,8,175,NORMAL
70,0,1,0,0,2,178,68.0,59,64,-54,-4,74,236,44,0,1,0,1,0,0,880,2,8,174,NORMAL
70,0,1,0,0,2,178,68.0,59,64,-54,-4,74,26,60,1,0,1,0,0,0,0,2,12,0,NORMAL
70,0,1,0,0,2,178,68.0,59,64,-54,-4,74,75,44,0,1,0,1,0,0,881,2,8,13,NORMAL
70,0,0,0,6,0,178,68.0,60,64,-54,-4,74,26,60,1,0,1,0,0,0,0,2,12,0,NORMAL
70,0,0,0,6,0,178,68.0,60,64,-54,-4,74,236,44,0,1,0,1,0,0,918,2,8,174,NORMAL
70,0,0,0,6,0,178,68.0,60,64,-54,-4,74,26,60,1,0,1,0,0,0,0,2,12,0,NORMAL
80,4,0,0,0,-1,178,68.0,60,64,-54,-4,74,237,44,0,1,0,1,0,0,919,2,8,175,NORMAL
80,4,0,0,0,-1,178,68.0,60,64,-54,-4,74,26,60,1,0,1,0,0,0,0,2,12,0,NORMAL
80,4,0,0,0,-1,178,68.0,60,64,-54,-4,74,235,44,0,1,0,1,0,0,920,2,8,173,NORMAL
80,3,0,0,-1,0,178,68.0,61,63,-27,2,79,26,60,1,0,1,0,0,0,0,2,12,0,NORMAL
80,3,0,0,-1,0,178,68.0,61,63,-27,2,79,236,44,0,1,0,1,0,0,921,2,8,174,NORMAL
80,3,0,0,-1,0,178,68.0,61,63,-27,2,79,237,44,0,1,0,1,0,0,922,2,8,175,NORMAL
80,1,0,0,-1,0,178,68.0,61,63,-9,1,80,237,44,0,1,0,1,0,0,922,2,8,175,NORMAL
80,1,0,0,-1,0,178,68.0,61,63,-9,1,80,237,44,0,1,0,1,0,0,958,2,8,175,NORMAL
80,1,0,0,-1,0,178,68.0,61,63,-9,1,80,86,44,1,0,1,0,0,0,321,2,8,0,NORMAL
80,0,0,0,-2,0,178,68.0,62,63,-4,3,81,236,44,0,1,0,1,0,0,959,2,8,174,NORMAL
80,0,0,0,-2,0,178,68.0,62,63,-4,3,81,26,60,1,0,1,0,0,0,0,2,12,0,NORMAL
80,0,0,0,-2,0,178,68.0,62,63,-4,3,81,235,44,0,1,0,1,0,0,960,2,8,173,NORMAL
80,0,0,0,0,0,-146,68.0,62,63,0,3,82,26,60,1,0,1,0,0,0,0,2,12,0,NORMAL
80,0,0,0,0,0,-146,68.0,62,63,0,3,82,86,44,1,0,1,0,0,0,322,2,8,0,NORMAL
80,0,0,0,0,0,-146,68.0,62,63,0,3,82,235,44,0,1,0,1,0,0,961,2,8,173,NORMAL
80,0,0,0,0,0,-115,68.0,63,63,0,3,82,26,60,1,0,1,0,0,0,0,2,12,0,NORMAL
80,0,0,0,0,0,-115,68.0,63,63,0,3,82,75,44,0,1,0,1,0,0,962,2,8,13,NORMAL
80,0,0,0,0,0,-115,68.0,63,63,0,3,82,236,44,0,1,0,1,0,0,963,2,8,174,NORMAL
80,0,0,0,0,0,-84,68.0,63,63,-4,5,83,86,44,1,0,1,0,0,0,323,2,8,0,NORMAL
80,0,0,0,0,0,-84,68.0,63,63,-4,5,83,26,60,1,0,1,0,0,0,0,2,12,0,NORMAL
80,0,0,0,0,0,-84,68.0,63,63,-4,5,83,26,60,1,0,1,0,0,0,0,2,12,0,NORMAL
80,0,0,0,0,0,-46,68.0,64,63,-4,8,84,235,44,0,1,0,1,0,0,1000,2,8,173,NORMAL
80,0,0,0,0,0,-46,68.0,64,63,-4,8,84,26,60,1,0,1,0,0,0,0,2,12,0,NORMAL
80,0,0,0,0,0,-46,68.0,64,63,-4,8,84,237,44,0,1,0,1,0,0,1001,2,8,175,NORMAL
80,0,0,0,0,0,-17,68.0,65,63,-3,8,85,26,60,1,0,1,0,0,0,0,2,12,0,NORMAL
80,0,0,0,0,0,-17,68.0,65,63,-3,8,85,237,44,0,1,0,1,0,0,1002,2,8,175,NORMAL
80,0,0,0,0,0,-17,68.0,65,63,-3,8,85,26,60,1,0,1,0,0,0,0,2,12,0,NORMAL
80,0,0,0,0,0,-5,68.0,65,63,-2,9,84,236,44,0,1,0,1,0,0,1003,2,8,174,NORMAL
80,0,0,0,0,0,-5,68.0,65,63,-2,9,84,26,60,1,0,1,0,0,0,0,2,12,0,NORMAL
80,0,0,0,0,0,-5,68.0,65,63,-2,9,84,237,44,0,1,0,1,0,0,1004,2,8,175,NORMAL
80,0,0,0,0,0,-3,68.0,66,63,-200,-200,-200,236,44,0,1,0,1,0,0,1039,2,8,174,NORMAL
80,0,0,0,0,0,-3,68.0,66,63,-200,-200,-200,26,60,1,0,1,0,0,0,0,2,12,0,NORMAL
80,0,0,0,0,0,-3,68.0,66,63,-200,-200,-200,236,44,0,1,0,1,0,0,1040,2,8,174,NORMAL
80,0,0,0,0,0,-3,68.0,66,62,-200,-200,-200,26,60,1,0,1,0,0,0,0,2,12,0,NORMAL
80,0,0,0,0,0,-3,68.0,66,62,-200,-200,-200,235,44,0,1,0,1,0,0,1041,2,8,173,NORMAL
80,0,0,0,0,0,-3,68.0,66,62,-200,-200,-200,75,44,0,1,0,1,0,0,1042,2,8,13,NORMAL
70,0,0,2,0,0,-3,67.0,67,62,-200,-200,-200,74,44,0,1,0,1,0,0,1043,2,8,12,NORMAL
70,0,0,2,0,0,-3,67.0,67,62,-200,-200,-200,26,60,1,0,1,0,0,0,0,2,12,0,NORMAL
70,0,0,2,0,0,-3,67.0,67,62,-200,-200,-200,236,320,0,1,0,1,0,0,1044,2,8,174,NORMAL
50,0,0,4,0,0,-3,67.0,67,62,-200,-200,-200,26,60,1,0,1,0,0,0,0,2,12,0,NORMAL
50,0,0,4,0,0,-3,67.0,67,62,-200,-200,-200,236,44,0,1,0,1,0,0,1045,2,8,174,NORMAL
50,0,0,4,0,0,-3,67.0,67,62,-200,-200,-200,237,44,0,1,0,1,0,0,1081,2,8,175,NORMAL
20,0,0,4,0,0,-3,68.0,68,62,-200,-200,-200,26,60,1,0,1,0,0,0,0,2,12,0,NORMAL
20,0,0,4,0,0,-3,68.0,68,62,-200,-200,-200,236,44,0,1,0,1,0,0,1082,2,8,174,NORMAL
20,0,0,4,0,0,-3,68.0,68,62,-200,-200,-200,26,60,1,0,1,0,0,0,0,2,12,0,NORMAL
0,0,0,3,0,0,-3,68.0,68,62,-200,-200,-200,236,44,0,1,0,1,0,0,1083,2,8,174,NORMAL
0,0,0,3,0,0,-3,68.0,68,62,-200,-200,-200,26,60,1,0,1,0,0,0,0,2,12,0,NORMAL
0,0,0,3,0,0,-3,68.0,68,62,-200,-200,-200,235,44,0,1,0,1,0,0,1084,2,8,173,NORMAL
0,-1,0,0,-1,0,-4,68.0,69,62,-200,-200,-200,26,60,1,0,1,0,0,0,0,2,12,0,NORMAL
0,-1,0,0,-1,0,-4,68.0,69,62,-200,-200,-200,236,44,0,1,0,1,0,0,1085,2,8,174,NORMAL
0,-1,0,0,-1,0,-4,68.0,69,62,-200,-200,-200,26,60,1,0,1,0,0,0,0,2,12,0,NORMAL
0,-1,0,0,-1,0,-4,68.0,69,62,-200,-200,-200,26,60,1,0,1,0,0,0,0,2,12,0,NORMAL
0,-1,0,0,-1,0,-4,68.0,69,62,-200,-200,-200,237,44,0,1,0,1,0,0,1121,2,8,175,NORMAL
0,-1,0,0,-1,0,-4,68.0,69,62,-200,-200,-200,26,60,1,0,1,0,0,0,0,2,12,0,NORMAL
70,0,0,0,0,0,0,72.0,11,52,-6,-4,86,236,44,0,1,0,1,0,0,1122,2,8,174,NORMAL
70,0,0,0,0,0,0,72.0,11,52,-6,-4,86,75,44,0,1,0,1,0,0,1123,2,8,13,NORMAL
70,0,0,0,0,0,0,72.0,11,52,-6,-4,86,26,60,1,0,1,0,0,0,0,2,12,0,NORMAL
70,0,0,0,0,0,0,72.0,12,52,-7,-5,86,236,44,0,1,0,1,0,0,1124,2,8,174,NORMAL
70,0,0,0,0,0,0,72.0,12,52,-7,-5,86,26,60,1,0,1,0,0,0,0,2,12,0,NORMAL
70,0,0,0,0,0,0,72.0,12,52,-7,-5,86,236,44,0,1,0,1,0,0,1125,2,8,174,NORMAL
70,0,0,0,0,0,0,72.0,12,52,-6,-6,86,26,60,1,0,1,0,0,0,0,2,12,0,NORMAL
70,0,0,0,0,0,0,72.0,12,52,-6,-6,86,26,60,1,0,1,0,0,0,0,2,12,0,NORMAL
70,0,0,0,0,0,0,72.0,12,52,-6,-6,86,26,60,1,0,1,0,0,0,0,2,12,0,NORMAL
70,0,0,0,0,0,0,72.0,13,52,-6,-8,86,236,44,0,1,0,1,0,0,1163,2,8,174,NORMAL
70,0,0,0,0,0,0,72.0,13,52,-6,-8,86,26,60,1,0,1,0,0,0,0,2,12,0,NORMAL
70,0,0,0,0,0,0,72.0,13,52,-6,-8,86,236,44,0,1,0,1,0,0,1164,2,8,174,NORMAL
70,0,0,0,0,0,0,72.0,13,52,-5,-9,86,26,60,1,0,1,0,0,0,0,2,12,0,NORMAL
70,0,0,0,0,0,0,72.0,13,52,-5,-9,86,236,44,0,1,0,1,0,0,1165,2,8,174,NORMAL
70,0,0,0,0,0,0,72.0,13,52,-5,-9,86,26,60,1,0,1,0,0,0,0,2,12,0,NORMAL
70,0,-1,0,0,-1,0,72.0,14,52,-4,-10,86,236,44,0,1,0,1,0,0,1166,2,8,174,NORMAL
70,0,-1,0,0,-1,0,72.0,14,52,-4,-10,86,26,60,1,0,1,0,0,0,0,2,12,0,NORMAL
70,0,-1,0,0,-1,0,72.0,14,52,-4,-10,86,237,44,0,1,0,1,0,0,1167,2,8,175,NORMAL
70,0,-1,0,0,0,0,72.0,14,52,-3,-7,85,237,44,0,1,0,1,0,0,1202,2,8,175,NORMAL
70,0,-1,0,0,0,0,72.0,14,52,-3,-7,85,75,44,0,1,0,1,0,0,1203,2,8,13,NORMAL
70,0,-1,0,0,0,0,72.0,14,52,-3,-7,85,74,44,0,1,0,1,0,0,1204,2,8,12,NORMAL
70,0,0,0,0,2,0,72.0,15,52,-3,-5,84,26,60,1,0,1,0,0,0,0,2,12,0,NORMAL
70,0,0,0,0,2,0,72.0,15,52,-3,-5,84,26,60,1,0,1,0,0,0,0,2,12,0,NORMAL
70,0,0,0,0,2,0,72.0,15,52,-3,-5,84,237,44,0,1,0,1,0,0,1206,2,8,175,NORMAL
70,0,0,0,0,0,0,72.0,15,52,-4,-7,83,26,60,1,0,1,0,0,0,0,2,12,0,NORMAL
70,0,0,0,0,0,0,72.0,15,52,-4,-7,83,235,44,0,1,0,1,0,0,1207,2,8,173,NORMAL
70,0,0,0,0,0,0,72.0,15,52,-4,-7,83,26,60,1,0,1,0,0,0,0,2,12,0,NORMAL
70,0,0,0,0,0,0,71.0,16,52,-1,-10,85,26,60,1,0,1,0,0,0,0,2,12,0,NORMAL
70,0,0,0,0,0,0,71.0,16,52,-1,-10,85,236,44,0,1,0,1,0,0,1245,2,8,174,NORMAL
70,0,0,0,0,0,0,71.0,16,52,-1,-10,85,26,60,1,0,1,0,0,0,0,2,12,0,NORMAL
70,0,0,0,0,0,0,71.0,16,52,-1,-11,86,237,44,0,1,0,1,0,0,1246,2,8,175,NORMAL
70,0,0,0,0,0,0,71.0,16,52,-1,-11,86,26,60,1,0,1,0,0,0,0,2,12,0,NORMAL
70,0,0,0,0,0,0,71.0,16,52,-1,-11,86,26,60,1,0,1,0,0,0,0,2,12,0,NORMAL
70,0,0,0,0,0,0,72.0,17,52,0,-15,86,74,44,0,1,0,1,0,0,1248,2,8,12,NORMAL
70,0,0,0,0,0,0,72.0,17,52,0,-15,86,75,44,0,1,0,1,0,0,1249,2,8,13,NORMAL
70,0,0,0,0,0,0,72.0,17,52,0,-15,86,236,44,0,1,0,1,0,0,1250,2,8,174,NORMAL
70,0,0,0,0,0,0,72.0,17,52,0,-15,87,237,44,0,1,0,1,0,0,1286,2,8,175,NORMAL
70,0,0,0,0,0,0,72.0,17,52,0,-15,87,26,60,1,0,1,0,0,0,0,2,12,0,NORMAL
70,0,0,0,0,0,0,72.0,17,52,0,-15,87,237,44,0,1,0,1,0,0,1287,2,8,175,NORMAL
70,0,0,0,-9,0,0,71.0,18,52,1,-15,87,26,60,1,0,1,0,0,0,0,2,12,0,NORMAL
70,0,0,0,-9,0,0,71.0,18,52,1,-15,87,237,44,0,1,0,1,0,0,1288,2,8,175,NORMAL
70,0,0,0,-9,0,0,71.0,18,52,1,-15,87,26,60,1,0,1,0,0,0,0,2,12,0,NORMAL
70,3,0,0,1,0,0,71.0,19,52,19,-16,88,236,44,0,1,0,1,0,0,1289,2,8,174,NORMAL
70,3,0,0,1,0,0,71.0,19,52,19,-16,88,26,60,1,0,1,0,0,0,0,2,12,0,NORMAL
70,3,0,0,1,0,0,71.0,19,52,19,-16,88,236,44,0,1,0,1,0,0,1290,2,8,174,NORMAL
70,2,0,0,-1,0,0,71.0,19,52,31,-15,91,236,44,0,1,0,1,0,0,1326,2,8,174,NORMAL
70,2,0,0,-1,0,0,71.0,19,52,31,-15,91,26,60,1,0,1,0,0,0,0,2,12,0,NORMAL
70,2,0,0,-1,0,0,71.0,19,52,31,-15,91,235,44,0,1,0,1,0,0,1327,2,8,173,NORMAL
70,2,0,0,-1,-1,0,71.0,20,52,44,9,82,26,60,1,0,1,0,0,0,0,2,12,0,NORMAL
70,2,0,0,-1,-1,0,71.0,20,52,44,9,82,236,44,0,1,0,1,0,0,1328,2,8,174,NORMAL
70,2,0,0,-1,-1,0,71.0,20,52,44,9,82,26,60,1,0,1,0,0,0,0,2,12,0,NORMAL
70,2,0,0,0,-1,0,72.0,20,52,31,15,80,75,44,0,1,0,1,0,0,1329,2,8,13,NORMAL
70,2,0,0,0,-1,0,72.0,20,52,31,15,80,236,44,0,1,0,1,0,0,1330,2,8,174,NORMAL
70,2,0,0,0,-1,0,72.0,20,52,31,15,80,26,60,1,0,1,0,0,0,0,2,12,0,NORMAL
70,0,0,0,2,2,0,72.0,21,52,18,13,82,236,44,0,1,0,1,0,0,1331,2,8,174,NORMAL
70,0,0,0,2,2,0,72.0,21,52,18,13,82,26,60,1,0,1,0,0,0,0,2,12,0,NORMAL
70,0,0,0,2,2,0,72.0,21,52,18,13,82,237,320,0,1,0,1,0,0,1361,2,8,175,NORMAL
70,0,0,0,-2,-2,0,71.0,21,52,13,11,83,237,320,0,1,0,1,0,0,1361,2,8,175,NORMAL
70,0,0,0,-2,-2,0,71.0,21,52,13,11,83,237,44,0,1,0,1,0,0,1368,2,8,175,NORMAL
70,0,0,0,-2,-2,0,71.0,21,52,13,11,83,26,60,1,0,1,0,0,0,0,2,12,0,NORMAL
70,1,0,0,0,-1,0,71.0,22,52,10,11,83,235,44,0,1,0,1,0,0,1369,2,8,173,NORMAL
70,1,0,0,0,-1,0,71.0,22,52,10,11,83,236,44,0,1,0,1,0,0,1370,2,8,174,NORMAL
70,1,0,0,0,-1,0,71.0,22,52,10,11,83,26,60,1,0,1,0,0,0,0,2,12,0,NORMAL
70,0,-1,0,0,-1,0,71.0,22,52,3,9,81,236,44,0,1,0,1,0,0,1371,2,8,174,NORMAL
70,0,-1,0,0,-1,0,71.0,22,52,3,9,81,26,60,1,0,1,0,0,0,0,2,12,0,NORMAL
70,0,-1,0,0,-1,0,71.0,22,52,3,9,81,236,44,0,1,0,1,0,0,1372,2,8,174,NORMAL
70,0,-1,0,0,0,0,71.0,23,52,0,6,79,26,60,1,0,1,0,0,0,0,2,12,0,NORMAL
70,0,-1,0,0,0,0,71.0,23,52,0,6,79,237,44,0,1,0,1,0,0,1408,2,8,175,NORMAL
70,0,-1,0,0,0,0,71.0,23,52,0,6,79,74,44,0,1,0,1,0,0,1409,2,8,12,NORMAL
60,0,0,0,0,0,0,71.0,23,52,0,5,79,26,60,1,0,1,0,0,0,0,2,12,0,NORMAL
60,0,0,0,0,0,0,71.0,23,52,0,5,79,75,44,0,1,0,1,0,0,1410,2,8,13,NORMAL
60,0,0,0,0,0,0,71.0,23,52,0,5,79,236,44,0,1,0,1,0,0,1411,2,8,174,NORMAL
60,0,0,0,0,0,0,71.0,24,52,0,7,79,26,60,1,0,1,0,0,0,0,2,12,0,NORMAL
60,0,0,0,0,0,0,71.0,24,52,0,7,79,235,44,0,1,0,1,0,0,1412,2,8,173,NORMAL
60,0,0,0,0,0,0,71.0,24,52,0,7,79,26,60,1,0,1,0,0,0,0,2,12,0,NORMAL
70,2,0,0,-8,0,0,71.0,24,52,0,12,79,236,44,0,1,0,1,0,0,1413,2,8,174,NORMAL
70,2,0,0,-8,0,0,71.0,24,52,0,12,79,26,60,1,0,1,0,0,0,0,2,12,0,NORMAL
70,2,0,0,-8,0,0,71.0,24,52,0,12,79,237,44,0,1,0,1,0,0,1449,2,8,175,NORMAL
70,3,0,0,0,0,0,71.0,25,52,-25,22,75,26,60,1,0,1,0,0,0,0,2,12,0,NORMAL
70,3,0,0,0,0,0,71.0,25,52,-25,22,75,235,44,0,1,0,1,0,0,1450,2,8,173,NORMAL
70,3,0,0,0,0,0,71.0,25,52,-25,22,75,26,60,1,0,1,0,0,0,0,2,12,0,NORMAL
70,2,0,0,0,-1,0,71.0,25,52,-34,24,77,236,44,0,1,0,1,0,0,1451,2,8,174,NORMAL
70,2,0,0,0,-1,0,71.0,25,52,-34,24,77,236,44,0,1,0,1,0,0,1452,2,8,174,NORMAL
70,2,0,0,0,-1,0,71.0,25,52,-34,24,77,26,60,1,0,1,0,0,0,0,2,12,0,NORMAL
70,2,0,0,-1,-1,0,71.0,26,52,-34,-35,76,235,44,0,1,0,1,0,0,1453,2,8,173,NORMAL
70,2,0,0,-1,-1,0,71.0,26,52,-34,-35,76,26,60,1,0,1,0,0,0,0,2,12,0,NORMAL
70,2,0,0,-1,-1,0,71.0,26,52,-34,-35,76,75,44,0,1,0,1,0,0,1490,2,8,13,NORMAL
70,2,-1,0,0,-1,0,71.0,27,52,-23,-23,82,236,44,0,1,0,1,0,0,1491,2,8,174,NORMAL
70,2,-1,0,0,-1,0,71.0,27,52,-23,-23,82,26,60,1,0,1,0,0,0,0,2,12,0,NORMAL
70,2,-1,0,0,-1,0,71.0,27,52,-23,-23,82,237,44,0,1,0,1,0,0,1492,2,8,175,NORMAL
70,1,-1,0,0,-1,0,70.0,27,52,-13,-25,78,26,60,1,0,1,0,0,0,0,2,12,0,NORMAL
70,1,-1,0,0,-1,0,70.0,27,52,-13,-25,78,237,44,0,1,0,1,0,0,1493,2,8,175,NORMAL
70,1,-1,0,0,-1,0,70.0,27,52,-13,-25,78,236,44,0,1,0,1,0,0,1494,2,8,174,NORMAL
70,0,0,0,0,2,0,70.0,28,52,-11,-20,78,26,60,1,0,1,0,0,0,0,2,12,0,NORMAL
70,0,0,0,0,2,0,70.0,28,52,-11,-20,78,26,60,1,0,1,0,0,0,0,2,12,0,NORMAL
70,0,0,0,0,2,0,70.0,28,52,-11,-20,78,236,44,0,1,0,1,0,0,1531,2,8,174,NORMAL
70,0,0,0,-2,-2,0,70.0,28,52,-8,-18,79,26,60,1,0,1,0,0,0,0,2,12,0,NORMAL
70,0,0,0,-2,-2,0,70.0,28,52,-8,-18,79,237,44,0,1,0,1,0,0,1532,2,8,175,NORMAL
70,0,0,0,-2,-2,0,70.0,28,52,-8,-18,79,26,60,1,0,1,0,0,0,0,2,12,0,NORMAL
70,0,-1,0,0,0,0,70.0,29,52,-8,-19,79,236,44,0,1,0,1,0,0,1533,2,8,174,NORMAL
70,0,-1,0,0,0,0,70.0,29,52,-8,-19,79,26,60,1,0,1,0,0,0,0,2,12,0,NORMAL
70,0,-1,0,0,0,0,70.0,29,52,-8,-19,79,237,44,0,1,0,1,0,0,1534,2,8,175,NORMAL
70,0,-1,0,0,0,0,70.0,29,52,-3,-9,80,26,60,1,0,1,0,0,0,0,2,12,0,NORMAL
70,0,-1,0,0,0,0,70.0,29,52,-3,-9,80,237,44,0,1,0,1,0,0,1535,2,8,175,NORMAL
70,0,-1,0,0,0,0,70.0,29,52,-3,-9,80,75,44,0,1,0,1,0,0,1536,2,8,13,NORMAL
70,0,-1,0,0,0,0,70.0,30,52,-3,-6,79,26,60,1,0,1,0,0,0,0,2,12,0,NORMAL
70,0,-1,0,0,0,0,70.0,30,52,-3,-6,79,236,44,0,1,0,1,0,0,1573,2,8,174,NORMAL
70,0,-1,0,0,0,0,70.0,30,52,-3,-6,79,26,60,1,0,1,0,0,0,0,2,12,0,NORMAL
60,0,0,0,0,0,0,71.0,30,52,-4,-4,78,236,44,0,1,0,1,0,0,1574,2,8,174,NORMAL
60,0,0,0,0,0,0,71.0,30,52,-4,-4,78,26,60,1,0,1,0,0,0,0,2,12,0,NORMAL
60,0,0,0,0,0,0,71.0,30,52,-4,-4,78,235,44,0,1,0,1,0,0,1575,2,8,173,NORMAL
60,0,0,0,0,0,0,71.0,31,52,-4,-8,78,26,60,1,0,1,0,0,0,0,2,12,0,NORMAL
60,0,0,0,0,0,0,71.0,31,52,-4,-8,78,235,44,0,1,0,1,0,0,1576,2,8,173,NORMAL
60,0,0,0,0,0,0,71.0,31,52,-4,-8,78,26,60,1,0,1,0,0,0,0,2,12,0,NORMAL
60,2,0,0,-8,0,0,70.0,31,52,-6,-10,78,236,44,0,1,0,1,0,0,1577,2,8,174,NORMAL
60,2,0,0,-8,0,0,70.0,31,52,-6,-10,78,237,44,0,1,0,1,0,0,1612,2,8,175,NORMAL
60,2,0,0,-8,0,0,70.0,31,52,-6,-10,78,26,60,1,0,1,0,0,0,0,2,12,0,NORMAL
70,3,0,0,0,0,0,70.0,32,52,10,-16,78,235,44,0,1,0,1,0,0,1613,2,8,173,NORMAL
70,3,0,0,0,0,0,70.0,32,52,10,-16,78,26,60,1,0,1,0,0,0,0,2,12,0,NORMAL
70,3,0,0,0,0,0,70.0,32,52,10,-16,78,237,44,0,1,0,1,0,0,1614,2,8,175,NORMAL
70,2,0,0,-1,-1,0,70.0,32,52,21,-21,77,74,44,0,1,0,1,0,0,1615,2,8,12,NORMAL
70,2,0,0,-1,-1,0,70.0,32,52,21,-21,77,26,60,1,0,1,0,0,0,0,2,12,0,NORMAL
70,2,0,0,-1,-1,0,70.0,32,52,21,-21,77,236,44,0,1,0,1,0,0,1616,2,8,174,NORMAL
60,2,0,0,-1,-1,0,70.0,33,52,34,-24,78,75,44,0,1,0,1,0,0,1617,2,8,13,NORMAL
60,2,0,0,-1,-1,0,70.0,33,52,34,-24,78,26,60,1,0,1,0,0,0,0,2,12,0,NORMAL
60,2,0,0,-1,-1,0,70.0,33,52,34,-24,78,237,44,0,1,0,1,0,0,1618,2,8,175,NORMAL
60,2,0,0,-1,0,0,70.0,33,52,-31,-3,81,26,60,1,0,1,0,0,0,0,2,12,0,NORMAL
60,2,0,0,-1,0,0,70.0,33,52,-31,-3,81,236,44,0,1,0,1,0,0,1654,2,8,174,NORMAL
60,2,0,0,-1,0,0,70.0,33,52,-31,-3,81,26,60,1,0,1,0,0,0,0,2,12,0,NORMAL
70,2,-1,0,-1,-1,0,71.0,34,52,-21,-9,81,236,44,0,1,0,1,0,0,1655,2,8,174,NORMAL
70,2,-1,0,-1,-1,0,71.0,34,52,-21,-9,81,236,44,0,1,0,1,0,0,1656,2,8,174,NORMAL
70,2,-1,0,-1,-1,0,71.0,34,52,-21,-9,81,26,60,1,0,1,0,0,0,0,2,12,0,NORMAL
70,0,0,0,0,0,0,71.0,34,52,-12,-4,83,236,44,0,1,0,1,0,0,1657,2,8,174,NORMAL
70,0,0,0,0,0,0,71.0,34,52,-12,-4,83,26,60,1,0,1,0,0,0,0,2,12,0,NORMAL
70,0,0,0,0,0,0,71.0,34,52,-12,-4,83,236,320,0,1,0,1,0,0,1665,2,8,174,NORMAL
70,0,0,0,-1,0,0,70.0,35,52,-7,-2,83,236,44,0,1,0,1,0,0,1694,2,8,174,NORMAL
70,0,0,0,-1,0,0,70.0,35,52,-7,-2,83,26,60,1,0,1,0,0,0,0,2,12,0,NORMAL
70,0,0,0,-1,0,0,70.0,35,52,-7,-2,83,237,44,0,1,0,1,0,0,1695,2,8,175,NORMAL
70,0,0,0,0,0,0,70.0,35,52,-4,-8,81,236,44,0,1,0,1,0,0,1696,2,8,174,NORMAL
70,0,0,0,0,0,0,70.0,35,52,-4,-8,81,75,44,0,1,0,1,0,0,1697,2,8,13,NORMAL
70,0,0,0,0,0,0,70.0,35,52,-4,-8,81,26,60,1,0,1,0,0,0,0,2,12,0,NORMAL
60,0,0,0,0,0,0,70.0,36,52,-4,-9,80,237,44,0,1,0,1,0,0,1698,2,8,175,NORMAL
60,0,0,0,0,0,0,70.0,36,52,-4,-9,80,26,60,1,0,1,0,0,0,0,2,12,0,NORMAL
60,0,0,0,0,0,0,70.0,36,52,-4,-9,80,236,44,0,1,0,1,0,0,1699,2,8,174,NORMAL
70,0,0,0,0,0,3,70.0,37,52,-3,-5,81,26,60,1,0,1,0,0,0,0,2,12,0,NORMAL
70,0,0,0,0,0,3,70.0,37,52,-3,-5,81,237,44,0,1,0,1,0,0,1737,2,8,175,NORMAL
70,0,0,0,0,0,3,70.0,37,52,-3,-5,81,26,60,1,0,1,0,0,0,0,2,12,0,NORMAL
70,0,0,0,0,0,33,70.0,37,52,-4,-4,81,235,44,0,1,0,1,0,0,1738,2,8,173,NORMAL
70,0,0,0,0,0,33,70.0,37,52,-4,-4,81,26,60,1,0,1,0,0,0,0,2,12,0,NORMAL
70,0,0,0,0,0,33,70.0,37,52,-4,-4,81,26,60,1,0,1,0,0,0,0,2,12,0,NORMAL
70,0,0,0,0,0,68,70.0,38,52,-3,-7,81,236,44,0,1,0,1,0,0,1741,2,8,174,NORMAL
70,0,0,0,0,0,68,70.0,38,52,-3,-7,81,237,44,0,1,0,1,0,0,1777,2,8,175,NORMAL
70,0,0,0,0,0,68,70.0,38,52,-3,-7,81,26,60,1,0,1,0,0,0,0,2,12,0,NORMAL
70,0,0,0,0,0,99,70.0,38,52,-6,-11,80,236,44,0,1,0,1,0,0,1778,2,8,174,NORMAL
70,0,0,0,0,0,99,70.0,38,52,-6,-11,80,75,44,0,1,0,1,0,0,1779,2,8,13,NORMAL
70,0,0,0,0,0,99,70.0,38,52,-6,-11,80,26,60,1,0,1,0,0,0,0,2,12,0,NORMAL
60,0,0,0,0,0,135,70.0,39,52,-3,-13,79,236,44,0,1,0,1,0,0,1781,2,8,174,NORMAL
60,0,0,0,0,0,135,70.0,39,52,-3,-13,79,236,44,0,1,0,1,0,0,1781,2,8,174,NORMAL
60,0,0,0,0,0,135,70.0,39,52,-3,-13,79,236,44,0,1,0,1,0,0,1781,2,8,174,NORMAL
60,0,0,0,0,0,164,70.0,39,52,-6,-15,78,236,44,0,1,0,1,0,0,1781,2,8,174,NORMAL
60,0,0,0,0,0,164,70.0,39,52,-6,-15,78,236,44,0,1,0,1,0,0,1781,2,8,174,NORMAL
60,0,0,0,0,0,164,70.0,39,52,-6,-15,78,236,44,0,1,0,1,0,0,1781,2,8,174,NORMAL
60,0,0,0,0,0,176,70.0,40,52,-3,-16,78,236,320,0,1,0,1,0,0,1781,2,8,174,NORMAL
60,0,0,0,0,0,176,70.0,40,52,-3,-16,78,26,60,1,0,1,0,0,0,0,2,12,0,NORMAL
60,0,0,0,0,0,176,70.0,40,52,-3,-16,78,236,44,0,1,0,1,0,0,1782,2,8,174,NORMAL
60,0,0,0,0,0,178,70.0,40,52,-5,-15,79,26,60,1,0,1,0,0,0,0,2,12,0,NORMAL
60,0,0,0,0,0,178,70.0,40,52,-5,-15,79,236,44,0,1,0,1,0,0,1783,2,8,174,NORMAL
60,0,0,0,0,0,178,70.0,40,52,-5,-15,79,26,60,1,0,1,0,0,0,0,2,12,0,NORMAL
70,0,0,0,0,0,178,70.0,41,52,-5,-13,80,237,44,0,1,0,1,0,0,1818,2,8,175,NORMAL
70,0,0,0,0,0,178,70.0,41,52,-5,-13,80,26,60,1,0,1,0,0,0,0,2,12,0,NORMAL
70,0,0,0,0,0,178,70.0,41,52,-5,-13,80,237,44,0,1,0,1,0,0,1819,2,8,175,NORMAL
70,0,0,0,-5,0,178,70.0,41,52,-4,-12,81,237,44,0,1,0,1,0,0,1820,2,8,175,NORMAL
70,0,0,0,-5,0,178,70.0,41,52,-4,-12,81,26,60,1,0,1,0,0,0,0,2,12,0,NORMAL
70,0,0,0,-5,0,178,70.0,41,52,-4,-12,81,235,44,0,1,0,1,0,0,1821,2,8,173,NORMAL
70,-4,0,0,-1,0,178,70.0,42,52,-15,-13,80,74,44,0,1,0,1,0,0,1822,2,8,12,NORMAL
70,-4,0,0,-1,0,178,70.0,42,52,-15,-13,80,26,60,1,0,1,0,0,0,0,2,12,0,NORMAL
70,-4,0,0,-1,0,178,70.0,42,52,-15,-13,80,236,44,0,1,0,1,0,0,1823,2,8,174,NORMAL
70,-2,0,0,0,0,178,70.0,42,52,-35,-5,86,24,0,1,1,1,1,0,0,8,2,4,0,NORMAL
70,-2,0,0,0,0,178,70.0,42,52,-35,-5,86,24,0,1,1,1,1,0,0,10,2,4,0,NORMAL
70,-2,0,0,0,0,178,70.0,42,52,-35,-5,86,104,0,4,1,4,1,0,0,50,0,8,0,NORMAL
70,-2,0,0,0,0,178,70.0,43,52,-35,-5,86,26,60,1,0,1,0,0,0,0,2,12,0,NORMAL
70,-2,0,0,0,0,178,70.0,43,52,-35,-5,86,26,60,1,0,1,0,0,0,0,2,12,0,NORMAL
70,-2,0,0,0,0,178,70.0,43,52,-35,-5,86,86,44,1,0,1,0,0,0,14,2,8,0,NORMAL
70,-2,0,0,0,0,178,70.0,43,52,12,-30,76,26,60,1,0,1,0,0,0,0,2,12,0,NORMAL
70,-2,0,0,0,0,178,70.0,43,52,12,-30,76,224,44,0,1,0,1,0,0,30,2,8,162,NORMAL
70,-2,0,0,0,0,178,70.0,43,52,12,-30,76,26,60,1,0,1,0,0,0,0,2,12,0,NORMAL
70,-1,0,0,5,0,178,70.0,44,52,3,-29,76,226,44,0,1,0,1,0,0,31,2,8,164,NORMAL
70,-1,0,0,5,0,178,70.0,44,52,3,-29,76,86,44,1,0,1,0,0,0,70,2,8,0,NORMAL
70,-1,0,0,5,0,178,70.0,44,52,3,-29,76,26,60,1,0,1,0,0,0,0,2,12,0,NORMAL
60,0,0,0,0,2,178,70.0,44,52,-4,-29,75,225,320,0,1,0,1,0,0,37,2,8,163,NORMAL
60,0,0,0,0,2,178,70.0,44,52,-4,-29,75,225,320,0,1,0,1,0,0,37,2,8,163,NORMAL
60,0,0,0,0,2,178,70.0,44,52,-4,-29,75,225,320,0,1,0,1,0,0,37,2,8,163,NORMAL
70,0,-2,0,0,0,178,70.0,45,52,-5,-17,78,112,44,1,0,1,0,0,0,92,2,8,0,NORMAL
70,0,-2,0,0,0,178,70.0,45,52,-5,-17,78,112,44,1,0,1,0,0,0,92,2,8,0,NORMAL
70,0,-2,0,0,0,178,70.0,45,52,-5,-17,78,228,44,0,1,0,1,0,0,70,2,8,166,NORMAL
70,0,-1,0,0,0,178,70.0,45,52,-6,-7,78,26,60,1,0,1,0,0,0,0,2,12,0,NORMAL
70,0,-1,0,0,0,178,70.0,45,52,-6,-7,78,86,44,1,0,1,0,0,0,93,2,8,0,NORMAL
70,0,-1,0,0,0,178,70.0,45,52,-6,-7,78,75,44,0,1,0,1,0,0,71,2,8,13,NORMAL
70,0,0,0,0,-1,178,70.0,46,52,-6,-3,79,226,44,0,1,0,1,0,0,72,2,8,164,NORMAL
70,0,0,0,0,-1,178,70.0,46,52,-6,-3,79,226,44,0,1,0,1,0,0,72,2,8,164,NORMAL
70,0,0,0,0,-1,178,70.0,46,52,-6,-3,79,26,60,1,0,1,0,0,0,0,2,12,0,NORMAL
70,0,0,0,0,0,178,70.0,47,52,-8,-1,79,226,44,0,1,0,1,0,0,73,2,8,164,NORMAL
70,0,0,0,0,0,178,70.0,47,52,-8,-1,79,86,44,1,0,1,0,0,0,95,2,8,0,NORMAL
70,0,0,0,0,0,178,70.0,47,52,-8,-1,79,26,60,1,0,1,0,0,0,0,2,12,0,NORMAL
70,0,0,0,0,0,178,70.0,47,52,-13,1,78,226,44,0,1,0,1,0,0,111,2,8,164,NORMAL
70,0,0,0,0,0,178,70.0,47,52,-13,1,78,64,44,0,1,0,1,0,0,112,2,8,2,NORMAL
70,0,0,0,0,0,178,70.0,47,52,-13,1,78,26,60,1,0,1,0,0,0,0,2,12,0,NORMAL
70,-2,0,0,-1,0,178,70.0,48,52,-13,0,79,227,44,0,1,0,1,0,0,113,2,8,165,NORMAL
70,-2,0,0,-1,0,178,70.0,48,52,-13,0,79,86,44,1,0,1,0,0,0,113,2,8,0,NORMAL
70,-2,0,0,-1,0,178,70.0,48,52,-13,0,79,26,60,1,0,1,0,0,0,0,2,12,0,NORMAL
70,-2,0,0,-1,0,178,69.0,48,52,-28,0,78,226,44,0,1,0,1,0,0,114,2,8,164,NORMAL
70,-2,0,0,-1,0,178,69.0,48,52,-28,0,78,226,320,0,1,0,1,0,0,119,2,8,164,NORMAL
70,-2,0,0,-1,0,178,69.0,48,52,-28,0,78,226,320,0,1,0,1,0,0,119,2,8,164,NORMAL
70,-2,0,0,4,0,178,69.0,49,52,-52,-3,70,228,44,0,1,0,1,0,0,154,2,8,166,NORMAL
70,-2,0,0,4,0,178,69.0,49,52,-52,-3,70,26,60,1,0,1,0,0,0,0,2,12,0,NORMAL
70,-2,0,0,4,0,178,69.0,49,52,-52,-3,70,226,44,0,1,0,1,0,0,155,2,8,164,NORMAL
60,0,0,0,6,0,178,69.0,49,52,-37,6,77,226,44,0,1,0,1,0,0,155,2,8,164,NORMAL
60,0,0,0,6,0,178,69.0,49,52,-37,6,77,226,44,0,1,0,1,0,0,155,2,8,164,NORMAL
60,0,0,0,6,0,178,69.0,49,52,-37,6,77,226,44,0,1,0,1,0,0,155,2,8,164,NORMAL
70,2,0,0,0,0,179,69.0,50,52,-61,8,60,226,44,0,1,0,1,0,0,155,2,8,164,NORMAL
70,2,0,0,0,0,179,69.0,50,52,-61,8,60,26,60,1,0,1,0,0,0,0,2,12,0,NORMAL
70,2,0,0,0,0,179,69.0,50,52,-61,8,60,227,44,0,1,0,1,0,0,156,2,8,165,NORMAL
70,2,0,0,0,0,178,69.0,50,52,-32,0,78,228,44,0,1,0,1,0,0,196,2,8,166,NORMAL
70,2,0,0,0,0,178,69.0,50,52,-32,0,78,26,60,1,0,1,0,0,0,0,2,12,0,NORMAL
70,2,0,0,0,0,178,69.0,50,52,-32,0,78,228,44,0,1,0,1,0,0,197,2,8,166,NORMAL
70,2,0,0,-5,0,178,69.0,51,52,-18,0,80,86,44,1,0,1,0,0,0,144,2,8,0,NORMAL
70,2,0,0,-5,0,178,69.0,51,52,-18,0,80,26,60,1,0,1,0,0,0,0,2,12,0,NORMAL
70,2,0,0,-5,0,178,69.0,51,52,-18,0,80,228,44,0,1,0,1,0,0,198,2,8,166,NORMAL
70,0,0,0,2,0,178,69.0,51,52,-8,-2,81,26,60,1,0,1,0,0,0,0,2,12,0,NORMAL
70,0,0,0,2,0,178,69.0,51,52,-8,-2,81,230,44,0,1,0,1,0,0,237,2,8,168,NORMAL
70,0,0,0,2,0,178,69.0,51,52,-8,-2,81,230,44,0,1,0,1,0,0,237,2,8,168,NORMAL
70,1,0,0,0,0,178,69.0,52,52,-6,-2,81,230,44,0,1,0,1,0,0,237,2,8,168,NORMAL
70,1,0,0,0,0,178,69.0,52,52,-6,-2,81,230,44,0,1,0,1,0,0,237,2,8,168,NORMAL
70,1,0,0,0,0,178,69.0,52,52,-6,-2,81,230,44,0,1,0,1,0,0,237,2,8,168,NORMAL
70,0,0,0,-5,0,178,69.0,52,52,-10,0,80,230,44,0,1,0,1,0,0,237,2,8,168,NORMAL
70,0,0,0,-5,0,178,69.0,52,52,-10,0,80,230,320,0,1,0,1,0,0,237,2,8,168,NORMAL
70,0,0,0,-5,0,178,69.0,52,52,-10,0,80,74,44,0,1,0,1,0,0,238,2,8,12,NORMAL
70,-4,0,0,0,0,179,69.0,53,52,-13,-5,80,26,60,1,0,1,0,0,0,0,2,12,0,NORMAL
70,-4,0,0,0,0,179,69.0,53,52,-13,-5,80,231,44,0,1,0,1,0,0,239,2,8,169,NORMAL
70,-4,0,0,0,0,179,69.0,53,52,-13,-5,80,86,44,1,0,1,0,0,0,154,2,8,0,NORMAL
70,-2,0,0,0,0,178,70.0,53,52,-34,0,80,26,60,1,0,1,0,0,0,0,2,12,0,NORMAL
70,-2,0,0,0,0,178,70.0,53,52,-34,0,80,26,60,1,0,1,0,0,0,0,2,12,0,NORMAL
70,-2,0,0,0,0,178,70.0,53,52,-34,0,80,229,44,0,1,0,1,0,0,278,2,8,167,NORMAL
70,-2,0,0,0,0,178,70.0,54,52,-48,-7,76,26,60,1,0,1,0,0,0,0,2,12,0,NORMAL
70,-2,0,0,0,0,178,70.0,54,52,-48,-7,76,230,44,0,1,0,1,0,0,279,2,8,168,NORMAL
70,-2,0,0,0,0,178,70.0,54,52,-48,-7,76,86,44,1,0,1,0,0,0,163,2,8,0,NORMAL
70,-2,0,0,0,0,178,70.0,54,52,-25,5,80,26,60,1,0,1,0,0,0,0,2,12,0,NORMAL
70,-2,0,0,0,0,178,70.0,54,52,-25,5,80,230,44,0,1,0,1,0,0,280,2,8,168,NORMAL
70,-2,0,0,0,0,178,70.0,54,52,-25,5,80,26,60,1,0,1,0,0,0,0,2,12,0,NORMAL
70,-1,0,0,2,0,178,70.0,55,52,-5,3,82,232,44,0,1,0,1,0,0,322,2,8,170,NORMAL
70,-1,0,0,2,0,178,70.0,55,52,-5,3,82,26,60,1,0,1,0,0,0,0,2,12,0,NORMAL
70,-1,0,0,2,0,178,70.0,55,52,-5,3,82,231,44,0,1,0,1,0,0,323,2,8,169,NORMAL
70,0,0,0,0,0,178,70.0,55,52,-3,2,82,26,60,1,0,1,0,0,0,0,2,12,0,NORMAL
70,0,0,0,0,0,178,70.0,55,52,-3,2,82,26,60,1,0,1,0,0,0,0,2,12,0,NORMAL
70,0,0,0,0,0,178,70.0,55,52,-3,2,82,227,44,0,1,0,1,0,0,363,2,8,165,NORMAL
70,0,0,0,0,0,178,70.0,56,52,-3,2,83,26,60,1,0,1,0,0,0,0,2,12,0,NORMAL
70,0,0,0,0,0,178,70.0,56,52,-3,2,83,75,44,0,1,0,1,0,0,364,2,8,13,NORMAL
70,0,0,0,0,0,178,70.0,56,52,-3,2,83,227,44,0,1,0,1,0,0,365,2,8,165,NORMAL
70,0,0,0,0,0,178,70.0,57,52,-3,2,84,64,44,0,1,0,1,0,0,366,2,8,2,NORMAL
70,0,0,0,0,0,178,70.0,57,52,-3,2,84,26,60,1,0,1,0,0,0,0,2,12,0,NORMAL
70,0,0,0,0,0,178,70.0,57,52,-3,2,84,26,60,1,0,1,0,0,0,0,2,12,0,NORMAL
70,-4,0,0,-2,0,178,70.0,57,52,-2,2,82,229,44,0,1,0,1,0,0,406,2,8,167,NORMAL
70,-4,0,0,-2,0,178,70.0,57,52,-2,2,82,229,44,0,1,0,1,0,0,406,2,8,167,NORMAL
70,-4,0,0,-2,0,178,70.0,57,52,-2,2,82,229,44,0,1,0,1,0,0,406,2,8,167,NORMAL
70,-2,0,0,0,0,178,69.0,58,52,19,0,81,86,44,1,0,1,0,0,0,195,2,8,0,NORMAL
70,-2,0,0,0,0,178,69.0,58,52,19,0,81,26,60,1,0,1,0,0,0,0,2,12,0,NORMAL
70,-2,0,0,0,0,178,69.0,58,52,19,0,81,228,44,0,1,0,1,0,0,407,2,8,166,NORMAL
70,-2,0,0,0,0,178,69.0,58,52,33,-1,78,75,44,0,1,0,1,0,0,448,2,8,13,NORMAL
70,-2,0,0,0,0,178,69.0,58,52,33,-1,78,75,44,0,1,0,1,0,0,448,2,8,13,NORMAL
70,-2,0,0,0,0,178,69.0,58,52,33,-1,78,228,44,0,1,0,1,0,0,449,2,8,166,NORMAL
70,-2,0,0,-1,0,178,69.0,59,52,46,-2,79,26,60,1,0,1,0,0,0,0,2,12,0,NORMAL
70,-2,0,0,-1,0,178,69.0,59,52,46,-2,79,227,44,0,1,0,1,0,0,450,2,8,165,NORMAL
70,-2,0,0,-1,0,178,69.0,59,52,46,-2,79,26,60,1,0,1,0,0,0,0,2,12,0,NORMAL
70,-2,0,0,0,0,178,69.0,59,52,35,-3,83,74,44,0,1,0,1,0,0,451,2,8,12,NORMAL
70,-2,0,0,0,0,178,69.0,59,52,35,-3,83,26,60,1,0,1,0,0,0,0,2,12,0,NORMAL
70,-2,0,0,0,0,178,69.0,59,52,35,-3,83,234,44,0,1,0,1,0,0,490,2,8,172,NORMAL
70,0,0,0,0,0,178,69.0,60,52,27,-9,81,26,60,1,0,1,0,0,0,0,2,12,0,NORMAL
70,0,0,0,0,0,178,69.0,60,52,27,-9,81,233,44,0,1,0,1,0,0,491,2,8,171,NORMAL
70,0,0,0,0,0,178,69.0,60,52,27,-9,81,26,60,1,0,1,0,0,0,0,2,12,0,NORMAL
70,0,0,0,-2,0,178,69.0,60,52,24,-8,80,233,44,0,1,0,1,0,0,492,2,8,171,NORMAL
70,0,0,0,-2,0,178,69.0,60,52,24,-8,80,234,44,0,1,0,1,0,0,533,2,8,172,NORMAL
70,0,0,0,-2,0,178,69.0,60,52,24,-8,80,234,44,0,1,0,1,0,0,534,2,8,172,NORMAL
70,-1,0,0,0,0,178,69.0,61,52,17,-7,81,86,44,1,0,1,0,0,0,221,2,8,0,NORMAL
70,-1,0,0,0,0,178,69.0,61,52,17,-7,81,64,44,0,1,0,1,0,0,535,2,8,2,NORMAL
70,-1,0,0,0,0,178,69.0,61,52,17,-7,81,26,60,1,0,1,0,0,0,0,2,12,0,NORMAL
70,-1,0,0,-1,0,178,69.0,61,52,7,-5,81,235,44,0,1,0,1,0,0,536,2,8,173,NORMAL
70,-1,0,0,-1,0,178,69.0,61,52,7,-5,81,98,320,2,1,2,1,0,0,595,0,5,0,NORMAL
70,-1,0,0,-1,0,178,69.0,61,52,7,-5,81,98,320,2,1,2,1,0,0,595,0,5,0,NORMAL
70,0,0,0,1,0,178,70.0,62,51,-1,-2,80,26,60,1,0,1,0,0,0,0,2,12,0,NORMAL
70,0,0,0,1,0,178,70.0,62,51,-1,-2,80,234,44,0,1,0,1,0,0,576,2,8,172,NORMAL
70,0,0,0,1,0,178,70.0,62,51,-1,-2,80,26,60,1,0,1,0,0,0,0,2,12,0,NORMAL
70,0,0,0,0,0,-155,69.0,62,51,1,-3,80,235,44,0,1,0,1,0,0,577,2,8,173,NORMAL
70,0,0,0,0,0,-155,69.0,62,51,1,-3,80,26,60,1,0,1,0,0,0,0,2,12,0,NORMAL
70,0,0,0,0,0,-155,69.0,62,51,1,-3,80,235,44,0,1,0,1,0,0,578,2,8,173,NORMAL
70,0,0,0,0,0,-131,69.0,63,51,2,-5,79,232,44,0,1,0,1,0,0,620,2,8,170,NORMAL
70,0,0,0,0,0,-131,69.0,63,51,2,-5,79,232,44,0,1,0,1,0,0,620,2,8,170,NORMAL
70,0,0,0,0,0,-131,69.0,63,51,2,-5,79,26,60,1,0,1,0,0,0,0,2,12,0,NORMAL
70,0,0,0,0,0,-95,69.0,63,51,0,0,80,233,44,0,1,0,1,0,0,621,2,8,171,NORMAL
70,0,0,0,0,0,-95,69.0,63,51,0,0,80,26,60,1,0,1,0,0,0,0,2,12,0,NORMAL
70,0,0,0,0,0,-95,69.0,63,51,0,0,80,232,44,0,1,0,1,0,0,622,2,8,170,NORMAL
70,0,0,0,0,0,-65,69.0,64,51,2,0,80,26,60,1,0,1,0,0,0,0,2,12,0,NORMAL
70,0,0,0,0,0,-65,69.0,64,51,2,0,80,26,60,1,0,1,0,0,0,0,2,12,0,NORMAL
70,0,0,0,0,0,-65,69.0,64,51,2,0,80,230,44,0,1,0,1,0,0,661,2,8,168,NORMAL
70,0,0,0,0,0,-30,69.0,64,51,1,2,82,26,60,1,0,1,0,0,0,0,2,12,0,NORMAL
70,0,0,0,0,0,-30,69.0,64,51,1,2,82,230,44,0,1,0,1,0,0,662,2,8,168,NORMAL
70,0,0,0,0,0,-30,69.0,64,51,1,2,82,75,44,0,1,0,1,0,0,663,2,8,13,NORMAL
70,0,0,0,0,0,-8,69.0,65,51,-1,2,84,26,60,1,0,1,0,0,0,0,2,12,0,NORMAL
70,0,0,0,0,0,-8,69.0,65,51,-1,2,84,232,44,0,1,0,1,0,0,704,2,8,170,NORMAL
70,0,0,0,0,0,-8,69.0,65,51,-1,2,84,86,44,1,0,1,0,0,0,260,2,8,0,NORMAL
70,0,0,0,0,0,-3,69.0,65,51,0,3,84,26,60,1,0,1,0,0,0,0,2,12,0,NORMAL
70,0,0,0,0,0,-3,69.0,65,51,0,3,84,232,44,0,1,0,1,0,0,705,2,8,170,NORMAL
70,0,0,0,0,0,-3,69.0,65,51,0,3,84,62,44,1,0,1,0,0,0,261,2,8,0,NORMAL
70,0,0,0,0,0,-2,69.0,66,51,-200,-200,-200,62,44,0,1,0,1,0,0,706,2,8,0,NORMAL
70,0,0,0,0,0,-2,69.0,66,51,-200,-200,-200,26,60,1,0,1,0,0,0,0,2,12,0,NORMAL
70,0,0,0,0,0,-2,69.0,66,51,-200,-200,-200,233,44,0,1,0,1,0,0,747,2,8,171,NORMAL
70,0,0,1,0,0,-3,69.0,66,51,-200,-200,-200,68,44,1,0,1,0,0,0,269,2,8,6,NORMAL
70,0,0,1,0,0,-3,69.0,66,51,-200,-200,-200,26,60,1,0,1,0,0,0,0,2,12,0,NORMAL
70,0,0,1,0,0,-3,69.0,66,51,-200,-200,-200,231,44,0,1,0,1,0,0,748,2,8,169,NORMAL
50,0,0,4,0,0,-3,69.0,67,50,-200,-200,-200,26,60,1,0,1,0,0,0,0,2,12,0,NORMAL
50,0,0,4,0,0,-3,69.0,67,50,-200,-200,-200,26,60,1,0,1,0,0,0,0,2,12,0,NORMAL
50,0,0,4,0,0,-3,69.0,67,50,-200,-200,-200,75,44,0,1,0,1,0,0,749,2,8,13,NORMAL
30,0,0,4,0,0,-2,69.0,67,50,-200,-200,-200,234,44,0,1,0,1,0,0,750,2,8,172,NORMAL
30,0,0,4,0,0,-2,69.0,67,50,-200,-200,-200,26,60,1,0,1,0,0,0,0,2,12,0,NORMAL
30,0,0,4,0,0,-2,69.0,67,50,-200,-200,-200,26,60,1,0,1,0,0,0,0,2,12,0,NORMAL
0,0,0,4,0,0,-2,69.0,68,50,-200,-200,-200,225,44,0,1,0,1,0,0,788,2,8,163,NORMAL
0,0,0,4,0,0,-2,69.0,68,50,-200,-200,-200,26,60,1,0,1,0,0,0,0,2,12,0,NORMAL
0,0,0,4,0,0,-2,69.0,68,50,-200,-200,-200,227,44,0,1,0,1,0,0,789,2,8,165,NORMAL
0,0,0,0,-1,0,0,69.0,69,50,-200,-200,-200,227,44,0,1,0,1,0,0,789,2,8,165,NORMAL
0,0,0,0,-1,0,0,69.0,69,50,-200,-200,-200,227,44,0,1,0,1,0,0,789,2,8,165,NORMAL
0,0,0,0,-1,0,0,69.0,69,50,-200,-200,-200,64,44,0,1,0,1,0,0,790,2,8,2,NORMAL
0,0,0,0,-1,0,0,69.0,69,50,-200,-200,-200,98,320,3,1,3,1,0,0,783,0,5,0,NORMAL
0,0,0,0,-1,0,0,69.0,69,50,-200,-200,-200,98,320,3,1,3,1,0,0,783,0,5,0,NORMAL
0,0,0,0,-1,0,0,69.0,69,50,-200,-200,-200,98,320,3,1,3,1,0,0,783,0,5,0,NORMAL
70,0,0,0,0,0,0,68.0,11,40,-10,-4,84,26,60,1,0,1,0,0,0,0,2,12,0,NORMAL
70,0,0,0,0,0,0,68.0,11,40,-10,-4,84,26,60,1,0,1,0,0,0,0,2,12,0,NORMAL
70,0,0,0,0,0,0,68.0,11,40,-10,-4,84,75,44,0,1,0,1,0,0,831,2,8,13,NORMAL
70,0,0,0,0,0,0,68.0,11,40,-10,-5,83,235,44,0,1,0,1,0,0,832,2,8,173,NORMAL
70,0,0,0,0,0,0,68.0,11,40,-10,-5,83,26,60,1,0,1,0,0,0,0,2,12,0,NORMAL
70,0,0,0,0,0,0,68.0,11,40,-10,-5,83,74,44,0,1,0,1,0,0,833,2,8,12,NORMAL
70,0,0,0,0,0,0,69.0,12,40,-9,-7,84,236,44,0,1,0,1,0,0,834,2,8,174,NORMAL
70,0,0,0,0,0,0,69.0,12,40,-9,-7,84,26,60,1,0,1,0,0,0,0,2,12,0,NORMAL
70,0,0,0,0,0,0,69.0,12,40,-9,-7,84,235,44,0,1,0,1,0,0,835,2,8,173,NORMAL
70,0,0,0,0,-1,0,69.0,12,40,-11,-6,84,26,60,1,0,1,0,0,0,0,2,12,0,NORMAL
70,0,0,0,0,-1,0,69.0,12,40,-11,-6,84,235,44,0,1,0,1,0,0,874,2,8,173,NORMAL
70,0,0,0,0,-1,0,69.0,12,40,-11,-6,84,26,60,1,0,1,0,0,0,0,2,12,0,NORMAL
70,0,0,0,0,-1,0,69.0,13,40,-7,-7,85,26,60,1,0,1,0,0,0,0,2,12,0,NORMAL
70,0,0,0,0,-1,0,69.0,13,40,-7,-7,85,236,44,0,1,0,1,0,0,875,2,8,174,NORMAL
70,0,0,0,0,-1,0,69.0,13,40,-7,-7,85,86,44,1,0,1,0,0,0,299,2,8,0,NORMAL
70,0,0,0,0,0,0,69.0,13,40,-10,-8,85,26,60,1,0,1,0,0,0,0,2,12,0,NORMAL
70,0,0,0,0,0,0,69.0,13,40,-10,-8,85,236,320,0,1,0,1,0,0,907,2,8,174,NORMAL
70,0,0,0,0,0,0,69.0,13,40,-10,-8,85,86,44,1,0,1,0,0,0,311,2,8,0,NORMAL
70,0,0,0,0,-1,0,68.0,14,40,-10,-7,86,26,60,1,0,1,0,0,0,0,2,12,0,NORMAL
70,0,0,0,0,-1,0,68.0,14,40,-10,-7,86,235,44,0,1,0,1,0,0,915,2,8,173,NORMAL
70,0,0,0,0,-1,0,68.0,14,40,-10,-7,86,26,60,1,0,1,0,0,0,0,2,12,0,NORMAL
70,1,0,0,0,-1,0,68.0,14,40,-8,-7,85,235,44,0,1,0,1,0,0,916,2,8,173,NORMAL
70,1,0,0,0,-1,0,68.0,14,40,-8,-7,85,86,44,1,0,1,0,0,0,312,2,8,0,NORMAL
70,1,0,0,0,-1,0,68.0,14,40,-8,-7,85,26,60,1,0,1,0,0,0,0,2,12,0,NORMAL
70,0,0,0,0,-1,0,68.0,15,40,-6,-5,84,235,44,0,1,0,1,0,0,917,2,8,173,NORMAL
70,0,0,0,0,-1,0,68.0,15,40,-6,-5,84,235,44,0,1,0,1,0,0,917,2,8,173,NORMAL
70,0,0,0,0,-1,0,68.0,15,40,-6,-5,84,26,60,1,0,1,0,0,0,0,2,12,0,NORMAL
60,0,0,0,0,0,0,68.0,16,40,-4,-7,83,86,44,1,0,1,0,0,0,320,2,8,0,NORMAL
60,0,0,0,0,0,0,68.0,16,40,-4,-7,83,235,44,0,1,0,1,0,0,957,2,8,173,NORMAL
60,0,0,0,0,0,0,68.0,16,40,-4,-7,83,26,60,1,0,1,0,0,0,0,2,12,0,NORMAL
70,0,0,0,0,0,0,68.0,16,40,-3,-10,84,235,44,0,1,0,1,0,0,958,2,8,173,NORMAL
70,0,0,0,0,0,0,68.0,16,40,-3,-10,84,235,44,0,1,0,1,0,0,958,2,8,173,NORMAL
70,0,0,0,0,0,0,68.0,16,40,-3,-10,84,235,44,0,1,0,1,0,0,958,2,8,173,NORMAL
70,0,0,0,0,-1,0,68.0,17,40,-6,-14,85,235,44,0,1,0,1,0,0,958,2,8,173,NORMAL
70,0,0,0,0,-1,0,68.0,17,40,-6,-14,85,235,44,0,1,0,1,0,0,958,2,8,173,NORMAL
70,0,0,0,0,-1,0,68.0,17,40,-6,-14,85,235,44,0,1,0,1,0,0,958,2,8,173,NORMAL
70,0,0,0,0,-1,0,68.0,17,40,-5,-18,85,235,320,0,1,0,1,0,0,958,2,8,173,NORMAL
70,0,0,0,0,-1,0,68.0,17,40,-5,-18,85,235,320,0,1,0,1,0,0,958,2,8,173,NORMAL
70,0,0,0,0,-1,0,68.0,17,40,-5,-18,85,235,320,0,1,0,1,0,0,958,2,8,173,NORMAL
70,2,0,0,-8,0,0,68.0,18,40,-4,-22,86,235,320,0,1,0,1,0,0,958,2,8,173,NORMAL
70,2,0,0,-8,0,0,68.0,18,40,-4,-22,86,239,44,0,1,0,1,0,0,998,2,8,177,NORMAL
70,2,0,0,-8,0,0,68.0,18,40,-4,-22,86,26,60,1,0,1,0,0,0,0,2,12,0,NORMAL
70,3,0,0,0,0,0,68.0,18,40,11,-22,88,241,44,0,1,0,1,0,0,999,2,8,179,NORMAL
70,3,0,0,0,0,0,68.0,18,40,11,-22,88,26,60,1,0,1,0,0,0,0,2,12,0,NORMAL
70,3,0,0,0,0,0,68.0,18,40,11,-22,88,236,44,0,1,0,1,0,0,1000,2,8,174,NORMAL
70,2,0,0,-1,-1,0,68.0,19,40,24,-22,95,24,0,1,1,1,1,0,0,44,2,4,0,NORMAL
70,2,0,0,-1,-1,0,68.0,19,40,24,-22,95,24,0,1,1,1,1,0,0,46,2,4,0,NORMAL
70,2,0,0,-1,-1,0,68.0,19,40,24,-22,95,104,0,3,1,3,1,0,0,51,0,8,0,NORMAL
70,2,0,0,-1,-1,0,68.0,19,40,24,-22,95,26,60,1,0,1,0,0,0,0,2,12,0,NORMAL
70,2,0,0,-1,-1,0,68.0,19,40,24,-22,95,26,60,1,0,1,0,0,0,0,2,12,0,NORMAL
70,2,0,0,-1,-1,0,68.0,19,40,24,-22,95,86,44,1,0,1,0,0,0,17,2,8,0,NORMAL
70,2,0,0,-1,-1,0,68.0,20,40,43,19,81,26,60,1,0,1,0,0,0,0,2,12,0,NORMAL
70,2,0,0,-1,-1,0,68.0,20,40,43,19,81,86,44,1,0,1,0,0,0,18,2,8,0,NORMAL
70,2,0,0,-1,-1,0,68.0,20,40,43,19,81,26,60,1,0,1,0,0,0,0,2,12,0,NORMAL
70,1,-1,0,0,-1,0,68.0,20,40,30,20,79,98,320,2,1,2,1,0,0,91,0,5,0,NORMAL
70,1,-1,0,0,-1,0,68.0,20,40,30,20,79,224,44,0,1,0,1,0,0,31,2,8,162,NORMAL
70,1,-1,0,0,-1,0,68.0,20,40,30,20,79,26,60,1,0,1,0,0,0,0,2,12,0,NORMAL
70,0,0,0,0,0,0,68.0,21,40,26,17,78,225,44,0,1,0,1,0,0,32,2,8,163,NORMAL
70,0,0,0,0,0,0,68.0,21,40,26,17,78,26,60,1,0,1,0,0,0,0,2,12,0,NORMAL
70,0,0,0,0,0,0,68.0,21,40,26,17,78,86,44,1,0,1,0,0,0,76,2,8,0,NORMAL
60,1,-1,0,-4,-3,0,68.0,21,40,26,15,79,226,44,0,1,0,1,0,0,33,2,8,164,NORMAL
60,1,-1,0,-4,-3,0,68.0,21,40,26,15,79,26,60,1,0,1,0,0,0,0,2,12,0,NORMAL
60,1,-1,0,-4,-3,0,68.0,21,40,26,15,79,224,44,0,1,0,1,0,0,34,2,8,162,NORMAL
60,1,-1,0,0,0,0,69.0,22,40,15,12,80,75,44,0,1,0,1,0,0,35,2,8,13,NORMAL
60,1,-1,0,0,0,0,69.0,22,40,15,12,80,26,60,1,0,1,0,0,0,0,2,12,0,NORMAL
60,1,-1,0,0,0,0,69.0,22,40,15,12,80,225,44,0,1,0,1,0,0,36,2,8,163,NORMAL
60,1,0,0,0,-1,0,69.0,22,40,7,8,80,26,60,1,0,1,0,0,0,0,2,12,0,NORMAL
60,1,0,0,0,-1,0,69.0,22,40,7,8,80,86,44,1,0,1,0,0,0,101,2,8,0,NORMAL
60,1,0,0,0,-1,0,69.0,22,40,7,8,80,26,60,1,0,1,0,0,0,0,2,12,0,NORMAL
60,0,0,0,1,-1,0,69.0,23,40,2,5,80,226,44,0,1,0,1,0,0,74,2,8,164,NORMAL
60,0,0,0,1,-1,0,69.0,23,40,2,5,80,226,44,0,1,0,1,0,0,74,2,8,164,NORMAL
60,0,0,0,1,-1,0,69.0,23,40,2,5,80,26,60,1,0,1,0,0,0,0,2,12,0,NORMAL
60,0,0,0,0,-1,0,69.0,23,40,2,5,80,225,44,0,1,0,1,0,0,75,2,8,163,NORMAL
60,0,0,0,0,-1,0,69.0,23,40,2,5,80,86,44,1,0,1,0,0,0,102,2,8,0,NORMAL
60,0,0,0,0,-1,0,69.0,23,40,2,5,80,26,60,1,0,1,0,0,0,0,2,12,0,NORMAL
60,0,0,0,0,0,0,69.0,24,40,4,6,81,225,44,0,1,0,1,0,0,76,2,8,163,NORMAL
60,0,0,0,0,0,0,69.0,24,40,4,6,81,225,44,0,1,0,1,0,0,77,2,8,163,NORMAL
60,0,0,0,0,0,0,69.0,24,40,4,6,81,86,44,1,0,1,0,0,0,105,2,8,0,NORMAL
70,0,0,0,0,0,0,69.0,24,40,5,7,82,26,60,1,0,1,0,0,0,0,2,12,0,NORMAL
70,0,0,0,0,0,0,69.0,24,40,5,7,82,226,44,0,1,0,1,0,0,78,2,8,164,NORMAL
70,0,0,0,0,0,0,69.0,24,40,5,7,82,226,44,0,1,0,1,0,0,78,2,8,164,NORMAL
70,0,0,0,-9,0,0,68.0,25,40,10,13,82,226,44,0,1,0,1,0,0,78,2,8,164,NORMAL
70,0,0,0,-9,0,0,68.0,25,40,10,13,82,226,44,0,1,0,1,0,0,78,2,8,164,NORMAL
70,0,0,0,-9,0,0,68.0,25,40,10,13,82,26,60,1,0,1,0,0,0,0,2,12,0,NORMAL
70,3,0,0,0,0,0,68.0,26,40,-2,15,83,86,44,1,0,1,0,0,0,117,2,8,0,NORMAL
70,3,0,0,0,0,0,68.0,26,40,-2,15,83,227,44,0,1,0,1,0,0,116,2,8,165,NORMAL
70,3,0,0,0,0,0,68.0,26,40,-2,15,83,26,60,1,0,1,0,0,0,0,2,12,0,NORMAL
70,2,0,0,-1,-1,0,68.0,26,40,-22,25,80,75,44,0,1,0,1,0,0,117,2,8,13,NORMAL
70,2,0,0,-1,-1,0,68.0,26,40,-22,25,80,86,44,1,0,1,0,0,0,119,2,8,0,NORMAL
70,2,0,0,-1,-1,0,68.0,26,40,-22,25,80,26,60,1,0,1,0,0,0,0,2,12,0,NORMAL
60,2,0,0,-1,0,0,68.0,27,40,-33,29,78,225,44,0,1,0,1,0,0,119,2,8,163,NORMAL
60,2,0,0,-1,0,0,68.0,27,40,-33,29,78,26,60,1,0,1,0,0,0,0,2,12,0,NORMAL
60,2,0,0,-1,0,0,68.0,27,40,-33,29,78,225,44,0,1,0,1,0,0,120,2,8,163,NORMAL
60,2,0,0,-1,0,0,69.0,27,40,-46,-32,74,86,44,1,0,1,0,0,0,120,2,8,0,NORMAL
60,2,0,0,-1,0,0,69.0,27,40,-46,-32,74,26,60,1,0,1,0,0,0,0,2,12,0,NORMAL
60,2,0,0,-1,0,0,69.0,27,40,-46,-32,74,26,60,1,0,1,0,0,0,0,2,12,0,NORMAL
70,2,-1,0,-1,0,0,69.0,28,40,-30,-30,81,226,44,0,1,0,1,0,0,158,2,8,164,NORMAL
70,2,-1,0,-1,0,0,69.0,28,40,-30,-30,81,26,60,1,0,1,0,0,0,0,2,12,0,NORMAL
70,2,-1,0,-1,0,0,69.0,28,40,-30,-30,81,229,44,0,1,0,1,0,0,159,2,8,167,NORMAL
70,1,-1,0,3,-1,0,68.0,28,40,-18,-25,82,228,44,0,1,0,1,0,0,160,2,8,166,NORMAL
70,1,-1,0,3,-1,0,68.0,28,40,-18,-25,82,26,60,1,0,1,0,0,0,0,2,12,0,NORMAL
70,1,-1,0,3,-1,0,68.0,28,40,-18,-25,82,26,60,1,0,1,0,0,0,0,2,12,0,NORMAL
70,0,0,0,0,0,0,68.0,29,40,-15,-27,80,228,44,0,1,0,1,0,0,162,2,8,166,NORMAL
70,0,0,0,0,0,0,68.0,29,40,-15,-27,80,228,44,0,1,0,1,0,0,199,2,8,166,NORMAL
70,0,0,0,0,0,0,68.0,29,40,-15,-27,80,26,60,1,0,1,0,0,0,0,2,12,0,NORMAL
60,1,-2,0,0,0,0,68.0,29,40,-14,-26,80,75,44,0,1,0,1,0,0,200,2,8,13,NORMAL
60,1,-2,0,0,0,0,68.0,29,40,-14,-26,80,229,44,0,1,0,1,0,0,201,2,8,167,NORMAL
60,1,-2,0,0,0,0,68.0,29,40,-14,-26,80,26,60,1,0,1,0,0,0,0,2,12,0,NORMAL
60,0,-1,0,0,0,0,68.0,30,40,-8,-16,81,228,44,0,1,0,1,0,0,202,2,8,166,NORMAL
60,0,-1,0,0,0,0,68.0,30,40,-8,-16,81,26,60,1,0,1,0,0,0,0,2,12,0,NORMAL
60,0,-1,0,0,0,0,68.0,30,40,-8,-16,81,74,44,0,1,0,1,0,0,204,2,8,12,NORMAL
70,0,-1,0,-1,-1,0,68.0,30,40,-5,-11,83,26,60,1,0,1,0,0,0,0,2,12,0,NORMAL
70,0,-1,0,-1,-1,0,68.0,30,40,-5,-11,83,228,44,0,1,0,1,0,0,205,2,8,166,NORMAL
70,0,-1,0,-1,-1,0,68.0,30,40,-5,-11,83,98,320,2,1,2,1,0,0,292,0,5,0,NORMAL
60,0,-1,0,0,0,0,68.0,31,40,-4,-8,82,98,320,2,1,2,1,0,0,292,0,5,0,NORMAL
60,0,-1,0,0,0,0,68.0,31,40,-4,-8,82,98,320,2,1,2,1,0,0,292,0,5,0,NORMAL
60,0,-1,0,0,0,0,68.0,31,40,-4,-8,82,26,60,1,0,1,0,0,0,0,2,12,0,NORMAL
60,0,0,0,-1,-1,0,68.0,31,40,-3,-6,82,229,44,0,1,0,1,0,0,240,2,8,167,NORMAL
60,0,0,0,-1,-1,0,68.0,31,40,-3,-6,82,26,60,1,0,1,0,0,0,0,2,12,0,NORMAL
60,0,0,0,-1,-1,0,68.0,31,40,-3,-6,82,230,44,0,1,0,1,0,0,241,2,8,168,NORMAL
60,0,0,0,-1,1,0,69.0,32,40,-3,-4,82,86,44,1,0,1,0,0,0,159,2,8,0,NORMAL
60,0,0,0,-1,1,0,69.0,32,40,-3,-4,82,26,60,1,0,1,0,0,0,0,2,12,0,NORMAL
